name,state,lat,lng
Abanda CDP,AL,33.091627,-85.527029
Abbeville city,AL,31.565164,-85.259165
Adamsville city,AL,33.602315,-86.971527
Addison town,AL,34.202681,-87.178004
Akron town,AL,32.879066,-87.740899
Alabaster city,AL,33.214355,-86.82308
Albertville city,AL,34.26313,-86.21066
Alexander City city,AL,32.916719,-85.940589
Alexandria CDP,AL,33.760819,-85.872008
Aliceville city,AL,33.123706,-88.159344
Allgood town,AL,33.907623,-86.516109
Altoona town,AL,34.040014,-86.305179
Andalusia city,AL,31.309436,-86.478031
Anderson town,AL,34.915675,-87.274274
Anniston city,AL,33.673469,-85.810891
Arab city,AL,34.332387,-86.501167
Ardmore town,AL,34.987838,-86.829022
Argo city,AL,33.697861,-86.50576
Ariton town,AL,31.597772,-85.713061
Arley town,AL,34.076234,-87.217831
Ashford city,AL,31.185284,-85.236236
Ashland town,AL,33.269892,-85.833706
Ashville city,AL,33.835197,-86.270015
Athens city,AL,34.779021,-86.950799
Atmore city,AL,31.124067,-87.457798
Attalla city,AL,33.986189,-86.121037
Auburn city,AL,32.607122,-85.490959
Autaugaville town,AL,32.432563,-86.658752
Avon town,AL,31.179727,-85.279211
Axis CDP,AL,30.922171,-88.02262
Babbie town,AL,31.302083,-86.319437
Baileyton town,AL,34.260858,-86.608788
Bakerhill town,AL,31.776923,-85.295408
Ballplay CDP,AL,34.023047,-85.801478
Banks town,AL,31.813264,-85.836434
Bay Minette city,AL,30.890265,-87.792759
Bayou La Batre city,AL,30.407586,-88.263271
Bear Creek town,AL,34.255481,-87.713399
Beatrice town,AL,31.733309,-87.209046
Beaverton town,AL,33.935411,-88.021778
Belgreen CDP,AL,34.47454,-87.861678
Belk town,AL,33.651641,-87.92861
Bellamy CDP,AL,32.463658,-88.131481
Belle Fontaine CDP,AL,30.489493,-88.105939
Benton town,AL,32.307931,-86.817546
Berlin town,AL,34.185005,-86.748955
Berry town,AL,33.666702,-87.609311
Bessemer city,AL,33.370858,-86.971522
Billingsley town,AL,32.664711,-86.706713
Birmingham city,AL,33.527174,-86.797036
Black town,AL,31.00977,-85.74442
Blountsville town,AL,34.075838,-86.583918
Blue Ridge CDP,AL,32.4989,-86.182436
Blue Springs town,AL,31.663516,-85.503526
Boaz city,AL,34.19902,-86.155151
Boligee town,AL,32.768081,-88.02859
Bon Air town,AL,33.259355,-86.327175
Bon Secour CDP,AL,30.318246,-87.72439
Boykin CDP,AL,32.068375,-87.294343
Brantley town,AL,31.581992,-86.256784
Brantleyville CDP,AL,33.219303,-86.882522
Brent city,AL,32.944893,-87.172088
Brewton city,AL,31.109175,-87.076583
Bridgeport city,AL,34.949312,-85.723765
Brighton city,AL,33.439551,-86.945404
Brilliant town,AL,34.025671,-87.769047
Bristow Cove CDP,AL,34.109216,-86.240993
Brook Highland CDP,AL,33.438035,-86.685262
Brookside town,AL,33.637404,-86.89266
Brookwood city,AL,33.239842,-87.331488
Broomtown CDP,AL,34.365728,-85.532112
Brundidge city,AL,31.717639,-85.81755
Bucks CDP,AL,31.016881,-88.026385
Butler town,AL,32.096479,-88.210781
Calera city,AL,33.122319,-86.745644
Calvert CDP,AL,31.149898,-88.021549
Camden city,AL,31.998493,-87.28895
Camp Hill town,AL,32.797327,-85.655833
Carbon Hill city,AL,33.894991,-87.522078
Cardiff town,AL,33.64729,-86.930637
Carlisle-Rockledge CDP,AL,34.114451,-86.124073
Carlton CDP,AL,31.348571,-87.835666
Carolina town,AL,31.23415,-86.521001
Carrollton town,AL,33.261903,-88.095071
Castleberry town,AL,31.299678,-87.029129
Catherine CDP,AL,32.18617,-87.469978
Cedar Bluff town,AL,34.221422,-85.588565
Center Point city,AL,33.643903,-86.684567
Centre city,AL,34.153059,-85.671683
Centreville city,AL,32.958967,-87.132043
Chatom town,AL,31.469145,-88.246019
Chelsea city,AL,33.309007,-86.635139
Cherokee town,AL,34.7577,-87.965589
Cherokee Ridge town,AL,34.420931,-86.563316
Chickasaw city,AL,30.77145,-88.079697
Childersburg city,AL,33.292558,-86.340864
Choccolocco CDP,AL,33.667728,-85.707191
Chunchula CDP,AL,30.927194,-88.2082
Citronelle city,AL,31.097269,-88.249843
Clanton city,AL,32.845572,-86.619494
Clay city,AL,33.696583,-86.608182
Clayhatchee town,AL,31.236925,-85.721478
Clayton city,AL,31.882277,-85.460454
Cleveland town,AL,34.002179,-86.561352
Clio city,AL,31.708516,-85.611039
Coaling city,AL,33.169901,-87.349887
Coats Bend CDP,AL,34.073273,-85.874602
Coffee Springs town,AL,31.165836,-85.910898
Coffeeville town,AL,31.766564,-88.086049
Coker town,AL,33.243752,-87.681329
Collinsville city,AL,34.267224,-85.86861
Colony town,AL,33.941393,-86.902001
Columbia town,AL,31.295351,-85.110202
Columbiana city,AL,33.191452,-86.615618
Concord CDP,AL,33.461988,-87.040429
Coosada town,AL,32.495394,-86.326543
Cordova town,AL,33.761788,-87.199416
Cottondale CDP,AL,33.193047,-87.454861
Cottonwood town,AL,31.054033,-85.29956
County Line town,AL,33.818902,-86.714706
Courtland town,AL,34.669946,-87.327892
Cowarts town,AL,31.206248,-85.309769
Creola town,AL,30.874249,-88.009537
Crossville town,AL,34.282697,-85.999737
Cuba town,AL,32.440733,-88.374798
Cullman city,AL,34.17687,-86.840656
Cullomburg CDP,AL,31.713061,-88.291774
Cusseta town,AL,32.787637,-85.305769
Dadeville city,AL,32.826114,-85.776201
Daleville city,AL,31.291534,-85.711711
Daphne city,AL,30.623922,-87.878482
Dauphin Island town,AL,30.250913,-88.171268
Daviston town,AL,33.056839,-85.634329
Dayton town,AL,32.350958,-87.641573
Deatsville town,AL,32.589044,-86.389059
Decatur city,AL,34.572995,-86.989901
Deer Park CDP,AL,31.218369,-88.328023
Delta CDP,AL,33.440524,-85.675905
Demopolis city,AL,32.499744,-87.826678
Detroit town,AL,34.027379,-88.167831
Dodge City town,AL,34.043275,-86.885524
Dora city,AL,33.728116,-87.081292
Dothan city,AL,31.233698,-85.406823
Double Springs town,AL,34.149648,-87.389447
Douglas town,AL,34.168258,-86.323386
Dozier town,AL,31.505407,-86.369235
Dunnavant CDP,AL,33.495171,-86.540245
Dutton town,AL,34.606152,-85.91185
Eagle Point CDP,AL,33.400912,-86.676753
East Brewton city,AL,31.09144,-87.055345
East Point CDP,AL,34.19121,-86.792253
Eclectic town,AL,32.640222,-86.041062
Edgewater CDP,AL,33.530099,-86.95279
Edwardsville town,AL,33.88374,-85.414124
Egypt CDP,AL,34.075938,-86.165054
Elba city,AL,31.417218,-86.077115
Elberta town,AL,30.373753,-87.595729
Eldridge town,AL,33.923053,-87.622869
Elkmont town,AL,34.932604,-86.976971
Elmore town,AL,32.556606,-86.341025
Emelle town,AL,32.728678,-88.316486
Emerald Mountain CDP,AL,32.447694,-86.094381
Enterprise city,AL,31.325529,-85.846071
Epes town,AL,32.695049,-88.141963
Equality CDP,AL,32.765659,-86.123185
Ethelsville town,AL,33.414066,-88.216093
Eufaula city,AL,31.909937,-85.152709
Eunola CDP,AL,31.031391,-85.833966
Eutaw city,AL,32.846247,-87.900332
Eva town,AL,34.326504,-86.765318
Evergreen city,AL,31.433216,-86.976081
Excel town,AL,31.426386,-87.343663
Fairfield city,AL,33.474802,-86.919407
Fairford CDP,AL,31.178002,-88.072784
Fairhope city,AL,30.52092,-87.879122
Fairview town,AL,34.250195,-86.677724
Falkville town,AL,34.377019,-86.909547
Faunsdale town,AL,32.457614,-87.593789
Fayette city,AL,33.694215,-87.831169
Fayetteville CDP,AL,33.168097,-86.442774
Fitzpatrick CDP,AL,32.210377,-85.873693
Five Points town,AL,33.017311,-85.351592
Flomaton town,AL,31.014816,-87.256016
Florala town,AL,31.022391,-86.318152
Florence city,AL,34.82981,-87.662202
Foley city,AL,30.397071,-87.668458
Forestdale CDP,AL,33.573632,-86.90011
Forkland town,AL,32.647435,-87.867436
Fort Deposit town,AL,31.986261,-86.566359
Fort Novosel CDP,AL,31.342576,-85.716072
Fort Payne city,AL,34.457329,-85.689447
Franklin town,AL,32.452693,-85.78541
Fredonia CDP,AL,32.983613,-85.292333
Frisco City town,AL,31.439485,-87.404182
Fruitdale CDP,AL,31.34979,-88.410937
Fruithurst town,AL,33.729539,-85.431249
Fulton town,AL,31.790989,-87.744212
Fultondale city,AL,33.617363,-86.801436
Fyffe town,AL,34.448957,-85.905167
Gadsden city,AL,34.006597,-86.016078
Gainesville town,AL,32.814934,-88.160791
Gallant CDP,AL,34.001318,-86.230171
Gantt town,AL,31.41074,-86.483524
Garden City town,AL,34.014688,-86.749054
Gardendale city,AL,33.674039,-86.80846
Gaylesville town,AL,34.267444,-85.561248
Geiger town,AL,32.868715,-88.318154
Geneva city,AL,31.043278,-85.875833
Georgiana town,AL,31.639134,-86.746762
Geraldine town,AL,34.359087,-86.002579
Gilbertown town,AL,31.866247,-88.307545
Glen Allen town,AL,33.892108,-87.732682
Glencoe city,AL,33.948339,-85.933606
Glenwood town,AL,31.671266,-86.173687
Goldville town,AL,33.084867,-85.777982
Good Hope city,AL,34.110689,-86.867104
Goodwater town,AL,33.060713,-86.052486
Gordo town,AL,33.322286,-87.903681
Gordon town,AL,31.143606,-85.092504
Gordonville town,AL,32.159179,-86.704235
Goshen town,AL,31.720015,-86.123245
Graham CDP,AL,33.455191,-85.323085
Grand Bay CDP,AL,30.472082,-88.344401
Grant town,AL,34.518173,-86.26043
Grayson Valley CDP,AL,33.646568,-86.641942
Graysville city,AL,33.633756,-86.941398
Greensboro city,AL,32.700968,-87.5937
Greenville city,AL,31.843072,-86.636951
Grimes town,AL,31.299869,-85.45029
Grove Hill town,AL,31.69867,-87.772868
Guin city,AL,33.98322,-87.902363
Gulfcrest CDP,AL,30.991107,-88.24223
Gulf Shores city,AL,30.277172,-87.702355
Guntersville city,AL,34.367947,-86.252323
Gurley town,AL,34.701364,-86.380271
Gu-Win town,AL,33.94433,-87.870376
Hackleburg town,AL,34.269355,-87.830402
Hackneyville CDP,AL,33.054654,-85.934423
Haleburg town,AL,31.409976,-85.138068
Haleyville city,AL,34.233832,-87.617574
Hamilton city,AL,34.138713,-87.970833
Hammondville town,AL,34.566232,-85.640348
Hanceville city,AL,34.06401,-86.764436
Hanover CDP,AL,33.002922,-86.200931
Harpersville town,AL,33.317725,-86.428431
Hartford city,AL,31.105348,-85.691225
Hartselle city,AL,34.440434,-86.940364
Harvest CDP,AL,34.85507,-86.758643
Hatton CDP,AL,34.560671,-87.413835
Hayden town,AL,33.894514,-86.744224
Hayneville town,AL,32.182595,-86.578588
Hazel Green CDP,AL,34.923656,-86.567392
Headland city,AL,31.354974,-85.357031
Heath town,AL,31.344839,-86.46905
Heflin city,AL,33.6474,-85.569339
Helena city,AL,33.284471,-86.886484
Henagar city,AL,34.630641,-85.730918
Highland Lake town,AL,33.894586,-86.422553
Highland Lakes CDP,AL,33.397611,-86.64792
Hillsboro town,AL,34.642586,-87.178489
Hissop CDP,AL,32.890568,-86.129601
Hobson CDP,AL,31.488725,-88.150928
Hobson City town,AL,33.618801,-85.846146
Hodges town,AL,34.334246,-87.92316
Hokes Bluff city,AL,33.989682,-85.862873
Hollins CDP,AL,33.121757,-86.126967
Hollis Crossroads CDP,AL,33.531333,-85.652862
Holly Pond town,AL,34.167686,-86.612067
Hollywood town,AL,34.717279,-85.965579
Holt CDP,AL,33.229745,-87.482894
Holtville CDP,AL,32.630299,-86.328004
Homewood city,AL,33.45855,-86.80965
Hoover city,AL,33.375128,-86.809416
Horn Hill town,AL,31.238137,-86.325163
Hueytown city,AL,33.408604,-87.016565
Huguley CDP,AL,32.843062,-85.239635
Huntsville city,AL,34.69772,-86.67667
Hurtsboro town,AL,32.24009,-85.41467
Hytop town,AL,34.896635,-86.089176
Ider town,AL,34.702599,-85.668958
Indian Springs Village city,AL,33.361209,-86.746856
Irondale city,AL,33.539914,-86.659082
Ivalee CDP,AL,34.037204,-86.147182
Jackson city,AL,31.532321,-87.891183
Jacksons' Gap town,AL,32.880932,-85.818278
Jacksonville city,AL,33.810066,-85.755217
Jasper city,AL,33.85111,-87.268348
Jemison city,AL,32.970705,-86.73307
Joppa CDP,AL,34.29955,-86.549946
Kansas town,AL,33.902808,-87.556598
Kellyton town,AL,32.979188,-86.034608
Kennedy town,AL,33.580722,-87.9855
Killen town,AL,34.860954,-87.529346
Kimberly city,AL,33.776982,-86.800198
Kinsey city,AL,31.296269,-85.334994
Kinston town,AL,31.219604,-86.170075
Ladonia CDP,AL,32.459709,-85.090423
La Fayette city,AL,32.899427,-85.400795
Lakeview town,AL,34.391675,-85.975573
Lake View city,AL,33.281696,-87.1413
Lanett city,AL,32.858649,-85.207788
Langston town,AL,34.545063,-86.09335
Leeds city,AL,33.546847,-86.571448
Leesburg town,AL,34.178627,-85.777897
Leighton town,AL,34.69368,-87.524282
Leroy CDP,AL,31.494971,-87.972773
Lester town,AL,34.982751,-87.155536
Level Plains town,AL,31.307125,-85.768722
Lexington town,AL,34.959351,-87.37283
Libertyville town,AL,31.24005,-86.456955
Lillian CDP,AL,30.418904,-87.420751
Lincoln city,AL,33.580169,-86.127876
Linden town,AL,32.30136,-87.792583
Lineville city,AL,33.312832,-85.752278
Lipscomb city,AL,33.426005,-86.926103
Lisman town,AL,32.171729,-88.284092
Littleville town,AL,34.595121,-87.670729
Livingston city,AL,32.595549,-88.186929
Loachapoka town,AL,32.607946,-85.598479
Lockhart town,AL,31.013011,-86.350273
Locust Fork town,AL,33.876794,-86.647093
Lookout Mountain CDP,AL,34.115916,-85.965464
Louisville town,AL,31.781047,-85.558336
Lowndesboro town,AL,32.276422,-86.610848
Loxley city,AL,30.684588,-87.739213
Luverne city,AL,31.718941,-86.269082
Lynn town,AL,34.057591,-87.548643
McCalla CDP,AL,33.303112,-87.02666
McDonald Chapel CDP,AL,33.518576,-86.938462
Macedonia CDP,AL,33.403139,-88.239221
McIntosh town,AL,31.264957,-88.028369
McKenzie town,AL,31.54647,-86.725954
McMullen town,AL,33.1481,-88.175749
Madison city,AL,34.710533,-86.76228
Madrid town,AL,31.035635,-85.399205
Magnolia Springs town,AL,30.40341,-87.775895
Malcolm CDP,AL,31.198806,-88.000624
Malvern town,AL,31.143698,-85.522973
Maplesville town,AL,32.784391,-86.879694
Marbury CDP,AL,32.672984,-86.463728
Margaret city,AL,33.672861,-86.463942
Marion city,AL,32.631968,-87.317333
Maytown town,AL,33.549954,-87.000043
Meadowbrook CDP,AL,33.395235,-86.704373
Megargel CDP,AL,31.378141,-87.430649
Memphis town,AL,33.137044,-88.305942
Mentone town,AL,34.563209,-85.589704
Meridianville CDP,AL,34.874913,-86.580559
Midfield city,AL,33.455272,-86.922414
Midland City city,AL,31.315675,-85.493674
Midway town,AL,32.076373,-85.524417
Mignon CDP,AL,33.18658,-86.256886
Millbrook city,AL,32.501474,-86.373914
Millerville CDP,AL,33.191458,-85.929828
Millport town,AL,33.555935,-88.082382
Millry town,AL,31.621199,-88.327956
Minor CDP,AL,33.539011,-86.940073
Mobile city,AL,30.668246,-88.107853
Monroeville city,AL,31.516223,-87.327714
Montevallo city,AL,33.126053,-86.847702
Montgomery city,AL,32.348503,-86.267307
Moody city,AL,33.603429,-86.493786
Moores Mill CDP,AL,34.852143,-86.52038
Mooresville town,AL,34.625883,-86.880025
Morris city,AL,33.746223,-86.800755
Morrison Crossroads CDP,AL,33.417996,-85.488284
Mosses town,AL,32.188758,-86.679435
Moulton city,AL,34.488301,-87.282707
Moundville town,AL,32.996542,-87.627545
Mountain Brook city,AL,33.491488,-86.73447
Mount Olive CDP,AL,33.078454,-86.13304
Mount Olive CDP,AL,33.669286,-86.87549
Mount Vernon town,AL,31.087727,-88.013166
Movico CDP,AL,31.062763,-88.026619
Mulga town,AL,33.556313,-86.972304
Munford town,AL,33.527644,-85.953809
Muscle Shoals city,AL,34.742657,-87.633767
Myrtlewood town,AL,32.252088,-87.949261
Nanafalia CDP,AL,32.111393,-87.995757
Nances Creek CDP,AL,33.855501,-85.669104
Napier Field town,AL,31.314925,-85.454929
Natural Bridge town,AL,34.092195,-87.601
Nauvoo town,AL,33.984386,-87.48544
Nectar town,AL,33.979779,-86.620614
Needham town,AL,31.987,-88.336563
Newbern town,AL,32.591672,-87.535614
New Brockton town,AL,31.37671,-85.919028
New Hope city,AL,34.537972,-86.41237
New Market CDP,AL,34.892335,-86.425818
New Site town,AL,33.026041,-85.784536
Newton town,AL,31.341229,-85.588307
New Union CDP,AL,34.133682,-86.228002
Newville town,AL,31.420604,-85.33669
Nixburg CDP,AL,32.855488,-86.100838
North Courtland town,AL,34.680023,-87.305717
North Johns town,AL,33.367769,-87.100725
Northport city,AL,33.257565,-87.596396
Notasulga town,AL,32.555409,-85.668577
Oak Grove town,AL,33.190359,-86.303727
Oak Hill town,AL,31.92162,-87.085234
Oakman town,AL,33.714322,-87.388699
Odenville city,AL,33.700875,-86.423371
Ohatchee town,AL,33.789759,-86.029062
Oneonta city,AL,33.947038,-86.489793
Onycha town,AL,31.225693,-86.276024
Opelika city,AL,32.660739,-85.37889
Opp city,AL,31.284375,-86.257442
Orange Beach city,AL,30.293987,-87.595371
Orrville town,AL,32.306769,-87.245447
Our Town CDP,AL,32.842211,-85.967035
Owens Cross Roads city,AL,34.585458,-86.455027
Oxford city,AL,33.59641,-85.868219
Ozark city,AL,31.451615,-85.645035
Paint Rock town,AL,34.660934,-86.333952
Panola CDP,AL,32.946819,-88.262266
Parrish town,AL,33.732321,-87.280127
Pea Ridge CDP,AL,33.133805,-86.937949
Pelham city,AL,33.32183,-86.742197
Pell City city,AL,33.560312,-86.263634
Pennington town,AL,32.200612,-88.037572
Penton CDP,AL,33.009832,-85.474824
Perdido CDP,AL,31.005634,-87.630272
Perdido Beach town,AL,30.353879,-87.5048
Peterman CDP,AL,31.583669,-87.263042
Petrey town,AL,31.85216,-86.204007
Phenix City city,AL,32.453709,-85.031019
Phil Campbell town,AL,34.351547,-87.707359
Pickensville town,AL,33.235782,-88.289443
Piedmont city,AL,33.927557,-85.615267
Pike Road city,AL,32.273609,-86.118927
Pinckard town,AL,31.318989,-85.537836
Pine Apple town,AL,31.872155,-86.989059
Pine Hill town,AL,31.985884,-87.587516
Pine Level CDP,AL,32.579539,-86.454318
Pine Ridge town,AL,34.447915,-85.783831
Pinson city,AL,33.709262,-86.663613
Pisgah town,AL,34.684366,-85.84601
Pleasant Grove city,AL,33.493967,-86.97815
Pleasant Groves town,AL,34.737619,-86.197637
Point Clear CDP,AL,30.486112,-87.911132
Pollard town,AL,31.023877,-87.172978
Powell town,AL,34.532588,-85.897553
Prattville city,AL,32.449041,-86.449401
Priceville city,AL,34.529583,-86.882177
Prichard city,AL,30.773337,-88.131416
Providence town,AL,32.342386,-87.776115
Putnam CDP,AL,32.018084,-88.033057
Ragland town,AL,33.748325,-86.135927
Rainbow City city,AL,33.928777,-86.084228
Rainsville city,AL,34.494364,-85.836505
Ranburne town,AL,33.525853,-85.339013
Ray CDP,AL,32.868141,-86.045252
Red Bay city,AL,34.436097,-88.136515
Redland CDP,AL,32.481426,-86.143759
Red Level town,AL,31.406711,-86.606217
Redstone Arsenal CDP,AL,34.677035,-86.650344
Reece City town,AL,34.077241,-86.034498
Reeltown CDP,AL,32.574211,-85.819562
Reform town,AL,33.37826,-88.017273
Rehobeth town,AL,31.122548,-85.439648
Remlap CDP,AL,33.806972,-86.593941
Repton town,AL,31.409716,-87.238931
Ridgeville town,AL,34.056929,-86.102874
River Falls town,AL,31.352397,-86.544609
Riverside city,AL,33.616394,-86.204357
Riverview town,AL,31.06126,-87.077531
Roanoke city,AL,33.145305,-85.369526
Robertsdale city,AL,30.557139,-87.704723
Rock Creek CDP,AL,33.477227,-87.081249
Rockford town,AL,32.896866,-86.208346
Rock Mills CDP,AL,33.15994,-85.28107
Rockville CDP,AL,31.405776,-87.844212
Rogersville town,AL,34.827714,-87.284092
Rosa town,AL,33.992756,-86.500325
Russellville city,AL,34.505719,-87.728123
Rutledge town,AL,31.724072,-86.302008
St. Florian town,AL,34.874098,-87.623736
St. Stephens CDP,AL,31.571111,-88.052834
Saks CDP,AL,33.711401,-85.853698
Samson town,AL,31.112417,-86.046735
Sand Rock town,AL,34.231228,-85.770416
Sanford town,AL,31.298819,-86.398848
Saraland city,AL,30.854509,-88.109809
Sardis City town,AL,34.172413,-86.119104
Satsuma city,AL,30.857874,-88.063383
Scottsboro city,AL,34.64462,-86.048155
Section town,AL,34.581644,-85.984942
Selma city,AL,32.416983,-87.035702
Selmont-West Selmont CDP,AL,32.378253,-87.006888
Semmes city,AL,30.796223,-88.24759
Sheffield city,AL,34.757019,-87.697085
Shelby CDP,AL,33.106882,-86.585403
Shiloh town,AL,34.462666,-85.877617
Shoal Creek CDP,AL,33.430763,-86.610925
Shorter town,AL,32.411501,-85.972808
Silas town,AL,31.767802,-88.325923
Silverhill town,AL,30.545359,-87.750557
Sims Chapel CDP,AL,31.249255,-88.142971
Sipsey town,AL,33.822119,-87.082918
Skyline town,AL,34.798524,-86.12243
Slocomb city,AL,31.112126,-85.59866
Smiths Station city,AL,32.522852,-85.099425
Smoke Rise CDP,AL,33.879942,-86.824683
Snead town,AL,34.116228,-86.390916
Somerville town,AL,34.467053,-86.791203
Southside city,AL,33.890841,-86.01802
South Vinemont town,AL,34.235567,-86.863965
Spanish Fort city,AL,30.722968,-87.865917
Spring Garden CDP,AL,33.972965,-85.555756
Springville city,AL,33.74052,-86.484086
Spruce Pine CDP,AL,34.39287,-87.729597
Standing Rock CDP,AL,33.08569,-85.239849
Stapleton CDP,AL,30.735558,-87.797727
Steele town,AL,33.941378,-86.192107
Sterrett CDP,AL,33.442198,-86.461045
Stevenson town,AL,34.876797,-85.81435
Stewartville CDP,AL,33.075532,-86.260693
Stockton CDP,AL,31.001245,-87.873929
Sulligent town,AL,33.891189,-88.126633
Sumiton city,AL,33.749269,-87.046903
Summerdale town,AL,30.476741,-87.687561
Susan Moore town,AL,34.072993,-86.414156
Sweet Water town,AL,32.104614,-87.861889
Sylacauga city,AL,33.18867,-86.274799
Sylvania town,AL,34.562039,-85.804722
Sylvan Springs town,AL,33.530194,-87.031158
Talladega city,AL,33.431757,-86.099454
Talladega Springs town,AL,33.120452,-86.437761
Tallassee city,AL,32.532665,-85.891993
Tarrant city,AL,33.592897,-86.766253
Taylor city,AL,31.168811,-85.47579
Theodore CDP,AL,30.538686,-88.187573
Thomaston town,AL,32.268277,-87.623706
Thomasville city,AL,31.915011,-87.737204
Thorsby city,AL,32.916909,-86.720335
Tibbie CDP,AL,31.37049,-88.243862
Tidmore Bend CDP,AL,34.033184,-85.926387
Tillmans Corner CDP,AL,30.581533,-88.21278
Town Creek town,AL,34.671301,-87.407763
Toxey town,AL,31.910712,-88.309146
Trafford town,AL,33.818713,-86.746502
Triana city,AL,34.587779,-86.748488
Trinity city,AL,34.597445,-87.081354
Troy city,AL,31.80196,-85.96713
Trussville city,AL,33.655233,-86.563239
Tuscaloosa city,AL,33.234404,-87.5283
Tuscumbia city,AL,34.718502,-87.702586
Tuskegee city,AL,32.418723,-85.682509
Twin town,AL,33.992314,-87.852295
Underwood-Petersville CDP,AL,34.876112,-87.698157
Union town,AL,32.99381,-87.907179
Union Grove town,AL,34.406172,-86.451667
Union Springs city,AL,32.139506,-85.714623
Uniontown city,AL,32.44662,-87.487271
Uriah CDP,AL,31.307365,-87.499213
Valley city,AL,32.808736,-85.18108
Valley Grande city,AL,32.486872,-87.032773
Valley Head town,AL,34.556234,-85.623008
Vance city,AL,33.173992,-87.226627
Vandiver CDP,AL,33.458856,-86.529222
Vernon town,AL,33.758816,-88.114291
Vestavia Hills city,AL,33.462496,-86.739508
Vina town,AL,34.376175,-88.060572
Vincent town,AL,33.383145,-86.402544
Vinegar Bend CDP,AL,31.259093,-88.367264
Vredenburgh town,AL,31.823234,-87.318077
Wadley town,AL,33.1234,-85.568592
Waldo town,AL,33.387083,-86.041075
Walnut Grove town,AL,34.064595,-86.28717
Warrior city,AL,33.814858,-86.81565
Waterloo town,AL,34.917199,-88.064373
Waverly town,AL,32.730078,-85.570999
Weaver city,AL,33.75907,-85.809363
Webb town,AL,31.257237,-85.289622
Wedowee town,AL,33.308004,-85.4865
Weogufka CDP,AL,33.021724,-86.309146
West Blocton town,AL,33.118176,-87.125225
West End-Cobb Town CDP,AL,33.651481,-85.876553
West Jefferson town,AL,33.673375,-87.040582
Westover town,AL,33.36734,-86.533986
West Point town,AL,34.238735,-86.964017
Wetumpka city,AL,32.542018,-86.205307
Whatley CDP,AL,31.646343,-87.710836
White Hall town,AL,32.297411,-86.715776
White Plains CDP,AL,33.759312,-85.68847
Whitesboro CDP,AL,34.169004,-86.058499
Wilsonville town,AL,33.240752,-86.491105
Wilton town,AL,33.081565,-86.879655
Winfield city,AL,33.934717,-87.79131
Woodland town,AL,33.374432,-85.39753
Woodstock town,AL,33.217498,-87.148433
Woodville town,AL,34.629535,-86.283558
Yellow Bluff town,AL,31.962341,-87.477359
York city,AL,32.500586,-88.291394
Aguila CDP,AZ,33.9374,-113.167329
Ajo CDP,AZ,32.392279,-112.883874
Ak Chin CDP,AZ,32.287326,-112.009078
Ak-Chin Village CDP,AZ,33.019602,-112.080875
Alamo Lake CDP,AZ,34.255851,-113.500313
Ali Chuk CDP,AZ,31.816919,-112.558394
Ali Chukson CDP,AZ,31.911528,-111.801625
Ali Molina CDP,AZ,31.902547,-111.780387
Alpine CDP,AZ,33.845524,-109.143692
Amado CDP,AZ,31.697358,-111.060803
Anegam CDP,AZ,32.374193,-112.034963
Antares CDP,AZ,35.422991,-113.808288
Anthem CDP,AZ,33.846766,-112.126999
Apache Junction city,AZ,33.382766,-111.540509
Arivaca CDP,AZ,31.574938,-111.292611
Arivaca Junction CDP,AZ,31.738891,-111.073596
Arizona City CDP,AZ,32.750852,-111.670514
Arizona Village CDP,AZ,34.854836,-114.589339
Arlington CDP,AZ,33.334622,-112.77475
Ash Fork CDP,AZ,35.217187,-112.4913
Avenue B and C CDP,AZ,32.719042,-114.660049
Avondale city,AZ,33.313236,-112.328928
Avra Valley CDP,AZ,32.419132,-111.339442
Aztec CDP,AZ,32.807567,-113.442477
Bagdad CDP,AZ,34.577199,-113.176818
Bear Flat CDP,AZ,34.291313,-111.067426
Beaver Dam CDP,AZ,36.906981,-113.936181
Beaver Valley CDP,AZ,34.342889,-111.299928
Bellemont CDP,AZ,35.242489,-111.813789
Benson city,AZ,31.914497,-110.328552
Beyerville CDP,AZ,31.392047,-110.874917
Bisbee city,AZ,31.398036,-109.931834
Bitter Springs CDP,AZ,36.612804,-111.646387
Black Canyon City CDP,AZ,34.071413,-112.122411
Blackwater CDP,AZ,33.039565,-111.579932
Blue Ridge CDP,AZ,34.640739,-111.107383
Bluewater CDP,AZ,34.170415,-114.262886
Bouse CDP,AZ,33.898476,-113.996364
Bowie CDP,AZ,32.32488,-109.484456
Brenda CDP,AZ,33.672082,-113.937883
Bryce CDP,AZ,32.925827,-109.823078
Buckeye city,AZ,33.431573,-112.641626
Buckshot CDP,AZ,32.740349,-114.483064
Bullhead City city,AZ,35.127371,-114.55599
Burnside CDP,AZ,35.75336,-109.624792
Bylas CDP,AZ,33.127373,-110.115041
Cactus Flats CDP,AZ,32.760507,-109.721273
Cactus Forest CDP,AZ,32.957823,-111.316922
Cameron CDP,AZ,35.853195,-111.428581
Campo Bonito CDP,AZ,32.562885,-110.69843
Camp Verde town,AZ,34.569405,-111.857014
Cane Beds CDP,AZ,36.934154,-112.911787
Canyon Day CDP,AZ,33.778891,-110.038193
Carefree town,AZ,33.823214,-111.913271
Carrizo CDP,AZ,33.979354,-110.331096
Casa Blanca CDP,AZ,33.115452,-111.908087
Casa Grande city,AZ,32.906763,-111.763385
Casas Adobes CDP,AZ,32.341834,-111.011593
Catalina CDP,AZ,32.484779,-110.899712
Catalina Foothills CDP,AZ,32.301872,-110.884843
Cave Creek town,AZ,33.836219,-111.982084
Cedar Creek CDP,AZ,33.891395,-110.195691
Centennial Park CDP,AZ,36.953812,-112.981282
Central CDP,AZ,32.86916,-109.790772
Central Heights-Midland City CDP,AZ,33.400183,-110.81519
Chandler city,AZ,33.282765,-111.851819
Charco CDP,AZ,32.247321,-112.600116
Chiawuli Tak CDP,AZ,31.940954,-111.776473
Chilchinbito CDP,AZ,36.492003,-110.049213
Chinle CDP,AZ,36.151148,-109.578682
Chino Valley town,AZ,34.73989,-112.40606
Chloride CDP,AZ,35.409702,-114.197242
Christopher Creek CDP,AZ,34.321005,-111.007245
Chuichu CDP,AZ,32.740329,-111.78219
Cibecue CDP,AZ,34.030367,-110.49196
Cibola CDP,AZ,33.374084,-114.676283
Cienega Springs CDP,AZ,34.19974,-114.212713
Circle City CDP,AZ,33.814877,-112.580993
Citrus Park CDP,AZ,33.533598,-112.446326
Clacks Canyon CDP,AZ,35.220358,-114.072299
Clarkdale town,AZ,34.747979,-112.058699
Claypool CDP,AZ,33.406101,-110.841873
Clay Springs CDP,AZ,34.359259,-110.304334
Clifton town,AZ,33.02957,-109.284039
Colorado City town,AZ,36.97011,-112.985312
Comobabi CDP,AZ,32.055397,-111.798824
Concho CDP,AZ,34.473838,-109.608266
Congress CDP,AZ,34.153356,-112.865555
Coolidge city,AZ,32.933616,-111.523585
Copper Hill CDP,AZ,33.430941,-110.746483
Cordes Lakes CDP,AZ,34.3103,-112.107334
Cornfields CDP,AZ,35.651242,-109.675658
Cornville CDP,AZ,34.739244,-111.90683
Corona de Tucson CDP,AZ,31.948571,-110.781868
Cottonwood CDP,AZ,36.072152,-109.890109
Cottonwood city,AZ,34.750834,-111.984004
Cowlic CDP,AZ,31.804747,-111.987629
Crozier CDP,AZ,35.422807,-113.648641
Crystal Beach CDP,AZ,34.571382,-114.392634
Cutter CDP,AZ,33.35838,-110.659327
Dateland CDP,AZ,32.820903,-113.542177
Deer Creek CDP,AZ,34.068786,-111.35185
Del Muerto CDP,AZ,36.187393,-109.435935
Dennehotso CDP,AZ,36.828998,-109.875694
Desert Hills CDP,AZ,34.546463,-114.377956
Dewey-Humboldt town,AZ,34.517396,-112.24965
Dilkon CDP,AZ,35.352879,-110.307091
Dolan Springs CDP,AZ,35.590453,-114.285179
Doney Park CDP,AZ,35.265638,-111.518951
Donovan Estates CDP,AZ,32.709358,-114.678148
Douglas city,AZ,31.399274,-109.541292
Dragoon CDP,AZ,32.021545,-110.034657
Drexel Heights CDP,AZ,32.145257,-111.04809
Dripping Springs CDP,AZ,33.104917,-110.754943
Drysdale CDP,AZ,32.645241,-114.706769
Dudleyville CDP,AZ,32.860011,-110.716494
Duncan town,AZ,32.749981,-109.0884
Eagar town,AZ,34.10678,-109.301221
East Fork CDP,AZ,33.810682,-109.920953
East Globe CDP,AZ,33.351132,-110.706186
East Verde Estates CDP,AZ,34.298272,-111.364552
Ehrenberg CDP,AZ,33.614208,-114.483007
El Capitan CDP,AZ,33.238318,-110.78327
Elephant Head CDP,AZ,31.766786,-110.991286
Elfrida CDP,AZ,31.679238,-109.686879
Elgin CDP,AZ,31.666552,-110.532704
El Mirage city,AZ,33.590224,-112.327102
Eloy city,AZ,32.741255,-111.594015
El Prado Estates CDP,AZ,32.706214,-114.521481
First Mesa CDP,AZ,35.831664,-110.368891
Flagstaff city,AZ,35.185212,-111.620698
Florence town,AZ,33.069367,-111.413992
Flowing Springs CDP,AZ,34.309304,-111.334731
Flowing Wells CDP,AZ,32.293767,-111.011055
Forest Lakes CDP,AZ,34.329935,-110.810653
Fort Apache CDP,AZ,33.790071,-109.988614
Fort Defiance CDP,AZ,35.747502,-109.068018
Fort Mohave CDP,AZ,35.000432,-114.574864
Fort Thomas CDP,AZ,33.030364,-109.961258
Fortuna Foothills CDP,AZ,32.661586,-114.39737
Fort Valley CDP,AZ,35.322667,-111.739777
Fountain Hills town,AZ,33.607799,-111.738398
Franklin CDP,AZ,32.677031,-109.072064
Fredonia town,AZ,36.961626,-112.516363
Freedom Acres CDP,AZ,34.319886,-111.305152
Gadsden CDP,AZ,32.556359,-114.781032
Ganado CDP,AZ,35.691875,-109.555727
Geronimo Estates CDP,AZ,34.369106,-111.361802
Gila Bend town,AZ,32.966242,-112.715465
Gila Crossing CDP,AZ,33.273015,-112.162668
Gilbert town,AZ,33.310345,-111.743121
Gisela CDP,AZ,34.101818,-111.288021
Glendale city,AZ,33.533111,-112.189901
Globe city,AZ,33.393642,-110.741106
Gold Canyon CDP,AZ,33.363903,-111.42298
Golden Shores CDP,AZ,34.781881,-114.477749
Golden Valley CDP,AZ,35.206066,-114.232753
Goodyear city,AZ,33.254031,-112.366472
Goodyear Village CDP,AZ,33.197313,-111.872344
Grand Canyon Village CDP,AZ,36.059483,-112.157912
Grand Canyon West CDP,AZ,36.004418,-113.804103
Greasewood CDP,AZ,35.52864,-109.860867
Greenehaven CDP,AZ,36.99597,-111.556564
Green Valley CDP,AZ,31.840843,-111.004482
Greer CDP,AZ,34.005751,-109.460586
Guadalupe town,AZ,33.366453,-111.963156
Gu Oidak CDP,AZ,31.920289,-112.024057
Hackberry CDP,AZ,35.340096,-113.725629
Haigler Creek CDP,AZ,34.219634,-110.971427
Haivana Nakya CDP,AZ,32.005154,-111.712418
Hard Rock CDP,AZ,36.030238,-110.504157
Hayden town,AZ,32.99495,-110.779898
Heber-Overgaard CDP,AZ,34.414141,-110.569561
Holbrook city,AZ,34.904624,-110.16721
Hondah CDP,AZ,34.094297,-109.934383
Hotevilla-Bacavi CDP,AZ,35.920744,-110.640714
Houck CDP,AZ,35.269308,-109.22344
Huachuca City town,AZ,31.630804,-110.342193
Hunter Creek CDP,AZ,34.306974,-111.016516
Icehouse Canyon CDP,AZ,33.34613,-110.801154
Indian Wells CDP,AZ,35.40925,-110.114438
Jakes Corner CDP,AZ,34.008227,-111.320226
Jeddito CDP,AZ,35.768199,-110.12782
Jerome town,AZ,34.747088,-112.107515
Joseph City CDP,AZ,34.963693,-110.329039
J-Six Ranchettes CDP,AZ,31.9666,-110.466357
Kachina Village CDP,AZ,35.092432,-111.695974
Kaibab CDP,AZ,36.879665,-112.725597
Kaibab Estates West CDP,AZ,35.274799,-112.498549
Kaibito CDP,AZ,36.592003,-111.107135
Kaka CDP,AZ,32.512294,-112.313845
Katherine CDP,AZ,35.22077,-114.561326
Kayenta CDP,AZ,36.717167,-110.260458
Keams Canyon CDP,AZ,35.820837,-110.203743
Kearny town,AZ,33.056392,-110.907091
Kingman city,AZ,35.216992,-114.010529
Kino Springs CDP,AZ,31.364128,-110.809745
Klagetoh CDP,AZ,35.499997,-109.530457
Kleindale CDP,AZ,32.268112,-110.91458
Kohatk CDP,AZ,32.578281,-112.003013
Kohls Ranch CDP,AZ,34.321053,-111.083889
Komatke CDP,AZ,33.296773,-112.162475
Ko Vaya CDP,AZ,32.081502,-111.895875
Kykotsmovi Village CDP,AZ,35.810245,-110.656849
Lake Havasu City city,AZ,34.499809,-114.310943
Lake Montezuma CDP,AZ,34.636908,-111.800945
Lake of the Woods CDP,AZ,34.152635,-109.994275
La Paz Valley CDP,AZ,33.558215,-114.243451
Lazy Y U CDP,AZ,35.136913,-113.968463
LeChee CDP,AZ,36.860892,-111.424438
Leupp CDP,AZ,35.296609,-111.003626
Linden CDP,AZ,34.26958,-110.136389
Litchfield Park city,AZ,33.501761,-112.35947
Littlefield CDP,AZ,36.865925,-113.935976
Lower Santan Village CDP,AZ,33.142838,-111.785284
Low Mountain CDP,AZ,35.948058,-110.100455
Lukachukai CDP,AZ,36.411233,-109.225538
Lupton CDP,AZ,35.354743,-109.052817
McConnico CDP,AZ,35.163594,-114.089738
McNary CDP,AZ,34.092153,-109.851376
McNeal CDP,AZ,31.610078,-109.658267
Maish Vaya CDP,AZ,32.170295,-112.134196
Mammoth town,AZ,32.685174,-110.72928
Many Farms CDP,AZ,36.342893,-109.637623
Marana town,AZ,32.465936,-111.135405
Maricopa city,AZ,33.041942,-111.999259
Maricopa Colony CDP,AZ,33.36259,-112.226809
Martinez Lake CDP,AZ,32.975468,-114.468228
Mayer CDP,AZ,34.423271,-112.240747
Mead Ranch CDP,AZ,34.346131,-111.142799
Meadview CDP,AZ,35.953156,-114.078871
Mesa city,AZ,33.399355,-111.715968
Mesa del Caballo CDP,AZ,34.285904,-111.295227
Mescal CDP,AZ,31.96743,-110.436582
Mesquite Creek CDP,AZ,34.960658,-114.571402
Miami town,AZ,33.395065,-110.872382
Miracle Valley CDP,AZ,31.382924,-110.14853
Moccasin CDP,AZ,36.909836,-112.754507
Moenkopi CDP,AZ,36.112484,-111.221243
Mohave Valley CDP,AZ,34.902431,-114.571389
Mojave Ranch Estates CDP,AZ,34.944901,-114.590643
Morenci CDP,AZ,33.058354,-109.333171
Mormon Lake CDP,AZ,34.91161,-111.448078
Morristown CDP,AZ,33.855895,-112.612886
Mountainaire CDP,AZ,35.093767,-111.645195
Mountain View Ranches CDP,AZ,35.233569,-111.472767
Munds Park CDP,AZ,34.937966,-111.628239
Naco CDP,AZ,31.345999,-109.927089
Nazlini CDP,AZ,35.911225,-109.474672
Nelson CDP,AZ,32.429828,-111.26489
New Kingman-Butler CDP,AZ,35.264487,-114.009073
New River CDP,AZ,33.882591,-112.086107
Nogales city,AZ,31.361928,-110.93482
Nolic CDP,AZ,32.034183,-111.955021
North Fork CDP,AZ,34.01057,-109.959543
Nutrioso CDP,AZ,33.95127,-109.206202
Oak Creek Canyon CDP,AZ,34.948928,-111.750429
Oak Springs CDP,AZ,35.47602,-109.13182
Oatman CDP,AZ,35.027375,-114.38386
Oljato-Monument Valley CDP,AZ,36.987248,-110.209641
Oracle CDP,AZ,32.608424,-110.782344
Orange Grove Mobile Manor CDP,AZ,32.598451,-114.660588
Oro Valley town,AZ,32.420713,-110.977
Oxbow Estates CDP,AZ,34.18035,-111.343015
Padre Ranchitos CDP,AZ,32.649591,-114.641584
Page city,AZ,36.941815,-111.513283
Palominas CDP,AZ,31.387556,-110.115065
Paradise Valley town,AZ,33.552157,-111.96133
Parker town,AZ,34.034006,-114.228109
Parker Strip CDP,AZ,34.270721,-114.129689
Parks CDP,AZ,35.285249,-111.967182
Patagonia town,AZ,31.544744,-110.745463
Paulden CDP,AZ,34.889655,-112.493724
Payson town,AZ,34.243841,-111.318964
Peach Springs CDP,AZ,35.53145,-113.43198
Peeples Valley CDP,AZ,34.277224,-112.765341
Peoria city,AZ,33.786186,-112.308042
Peridot CDP,AZ,33.303504,-110.463798
Phoenix city,AZ,33.572154,-112.090132
Picacho CDP,AZ,32.710196,-111.494296
Picture Rocks CDP,AZ,32.324713,-111.259861
Pima town,AZ,32.891886,-109.844268
Pinal CDP,AZ,33.380145,-110.757245
Pine CDP,AZ,34.380348,-111.460477
Pinedale CDP,AZ,34.320724,-110.259901
Pine Lake CDP,AZ,35.088699,-113.873928
Pinetop Country Club CDP,AZ,34.116435,-109.891009
Pinetop-Lakeside town,AZ,34.15148,-109.967507
Pinion Pines CDP,AZ,35.14663,-113.905814
Pinon CDP,AZ,36.098856,-110.219116
Pirtleville CDP,AZ,31.360894,-109.566052
Pisinemo CDP,AZ,32.034917,-112.319228
Poston CDP,AZ,33.99209,-114.404454
Prescott city,AZ,34.592241,-112.446733
Prescott Valley town,AZ,34.59793,-112.318497
Quartzsite town,AZ,33.667507,-114.217041
Queen Creek town,AZ,33.239425,-111.613319
Queen Valley CDP,AZ,33.283043,-111.304973
Rainbow City CDP,AZ,33.873031,-109.976277
Rancho Mesa Verde CDP,AZ,32.594385,-114.655084
Red Lake CDP,AZ,35.361487,-112.172127
Red Mesa CDP,AZ,36.971111,-109.36982
Red Rock CDP,AZ,36.601117,-109.064539
Red Rock CDP,AZ,32.561182,-111.374004
Rillito CDP,AZ,32.415531,-111.154822
Rincon Valley CDP,AZ,32.109993,-110.688976
Rio Rico CDP,AZ,31.498168,-110.987798
Rio Verde CDP,AZ,33.726592,-111.675849
Rock House CDP,AZ,33.630654,-110.941078
Rock Point CDP,AZ,36.696848,-109.619491
Roosevelt CDP,AZ,33.657393,-111.127051
Roosevelt Estates CDP,AZ,33.62019,-110.999784
Rough Rock CDP,AZ,36.419545,-109.864481
Round Rock CDP,AZ,36.504256,-109.463156
Round Valley CDP,AZ,34.187758,-111.301801
Rye CDP,AZ,34.097775,-111.354263
Sacate Village CDP,AZ,33.13986,-111.977566
Sacaton CDP,AZ,33.077548,-111.762914
Sacaton Flats Village CDP,AZ,33.05664,-111.661002
Saddlebrooke CDP,AZ,32.556421,-110.874676
Safford city,AZ,32.833298,-109.697418
Sahuarita town,AZ,31.932238,-110.965395
St. David CDP,AZ,31.886037,-110.221485
St. Johns city,AZ,34.500368,-109.37691
St. Johns CDP,AZ,33.308487,-112.197381
St. Michaels CDP,AZ,35.660559,-109.096174
Salome CDP,AZ,33.777771,-113.606047
San Carlos CDP,AZ,33.344561,-110.477712
Sanders CDP,AZ,35.209217,-109.319118
San Jose CDP,AZ,32.817963,-109.5948
San Luis city,AZ,32.485678,-114.721947
San Manuel CDP,AZ,32.609095,-110.641513
San Miguel CDP,AZ,31.629493,-111.780134
San Simon CDP,AZ,32.268169,-109.2302
Santa Cruz CDP,AZ,33.232701,-112.159368
San Tan Valley CDP,AZ,33.178592,-111.562823
Santa Rosa CDP,AZ,32.332488,-112.046255
Sawmill CDP,AZ,35.886229,-109.158017
Scenic CDP,AZ,36.793589,-114.012752
Scottsdale city,AZ,33.684272,-111.861448
Seba Dalkai CDP,AZ,35.478933,-110.4511
Second Mesa CDP,AZ,35.851387,-110.49799
Sedona city,AZ,34.858517,-111.793057
Sehili CDP,AZ,36.280772,-109.185521
Seligman CDP,AZ,35.325613,-112.857247
Sells CDP,AZ,31.920874,-111.87087
Seven Mile CDP,AZ,33.788181,-109.958554
Shongopovi CDP,AZ,35.809702,-110.533441
Shonto CDP,AZ,36.587043,-110.662477
Show Low city,AZ,34.265053,-110.038321
Shumway CDP,AZ,34.414544,-110.064907
Sierra Vista city,AZ,31.56541,-110.314508
Sierra Vista Southeast CDP,AZ,31.452512,-110.218977
Six Shooter Canyon CDP,AZ,33.366782,-110.774601
Snowflake town,AZ,34.521459,-110.091182
So-Hi CDP,AZ,35.252725,-114.141482
Solomon CDP,AZ,32.813811,-109.62893
Somerton city,AZ,32.601816,-114.696344
Sonoita CDP,AZ,31.66561,-110.639105
South Komelik CDP,AZ,31.714472,-111.774415
South Tucson city,AZ,32.195474,-110.969154
Springerville town,AZ,34.171921,-109.306892
Spring Valley CDP,AZ,34.345185,-112.159168
Stanfield CDP,AZ,32.879365,-111.962771
Star Valley town,AZ,34.254685,-111.220709
Steamboat CDP,AZ,35.752636,-109.850583
Stotonic Village CDP,AZ,33.153223,-111.817043
Strawberry CDP,AZ,34.390929,-111.502656
Summerhaven CDP,AZ,32.442172,-110.775031
Summit CDP,AZ,32.062084,-110.94863
Sun City CDP,AZ,33.6155,-112.283108
Sun City West CDP,AZ,33.671383,-112.357187
Sunizona CDP,AZ,31.885494,-109.63322
Sun Lakes CDP,AZ,33.214955,-111.869973
Sunsites CDP,AZ,31.941654,-109.840825
Sun Valley CDP,AZ,34.982905,-110.031971
Sunwest CDP,AZ,33.650984,-113.409131
Supai CDP,AZ,36.229865,-112.692579
Superior town,AZ,33.27162,-111.124161
Surprise city,AZ,33.670801,-112.452546
Sweet Water Village CDP,AZ,33.12,-111.837866
Swift Trail Junction CDP,AZ,32.727193,-109.718114
Tacna CDP,AZ,32.700435,-113.961785
Tanque Verde CDP,AZ,32.268765,-110.743681
Tat Momoli CDP,AZ,32.601195,-111.886129
Taylor town,AZ,34.442748,-110.098534
Teec Nos Pos CDP,AZ,36.933289,-109.064115
Tees Toh CDP,AZ,35.486023,-110.405576
Tempe city,AZ,33.388414,-111.931782
Thatcher town,AZ,32.812708,-109.766516
Theba CDP,AZ,32.918231,-112.889776
Three Points CDP,AZ,32.05931,-111.286595
Timberline-Fernwood CDP,AZ,35.316759,-111.550715
Tolani Lake CDP,AZ,35.429788,-110.841172
Tolleson city,AZ,33.44837,-112.256012
Tombstone city,AZ,31.720772,-110.076701
Tonalea CDP,AZ,36.321734,-110.966665
Tonopah CDP,AZ,33.487986,-112.930811
Tonto Basin CDP,AZ,33.843256,-111.301575
Tonto Village CDP,AZ,34.319808,-111.139313
Topawa CDP,AZ,31.807835,-111.830472
Topock CDP,AZ,34.719973,-114.478786
Top-of-the-World CDP,AZ,33.347668,-110.999724
Toyei CDP,AZ,35.703817,-109.938174
Truxton CDP,AZ,35.490372,-113.563011
Tsaile CDP,AZ,36.302418,-109.218666
Tubac CDP,AZ,31.610681,-111.057047
Tuba City CDP,AZ,36.125074,-111.246661
Tucson city,AZ,32.153036,-110.870773
Tucson Estates CDP,AZ,32.179223,-111.126627
Tucson Mountains CDP,AZ,32.282291,-111.077367
Tumacacori-Carmen CDP,AZ,31.57099,-111.047652
Turkey Creek CDP,AZ,33.801088,-109.9461
Tusayan town,AZ,35.954961,-112.120195
Upper Santan Village CDP,AZ,33.116438,-111.74415
Utting CDP,AZ,33.854583,-113.912865
Vail CDP,AZ,32.021706,-110.693687
Vaiva Vo CDP,AZ,32.716654,-111.926902
Valencia West CDP,AZ,32.134524,-111.113472
Valentine CDP,AZ,35.38853,-113.659115
Valle CDP,AZ,35.675239,-112.152886
Valle Vista CDP,AZ,35.410944,-113.862688
Ventana CDP,AZ,32.468048,-112.243447
Verde Village CDP,AZ,34.711871,-111.994125
Vernon CDP,AZ,34.2479,-109.689943
Vicksburg CDP,AZ,33.729271,-113.825404
Village of Oak Creek (Big Park) CDP,AZ,34.781269,-111.7606
Wagon Wheel CDP,AZ,34.197527,-110.027133
Wahak Hotrontk CDP,AZ,32.174739,-112.366291
Wall Lane CDP,AZ,32.657309,-114.710529
Walnut Creek CDP,AZ,35.131243,-114.126631
Washington Park CDP,AZ,34.400354,-111.271003
Wellton town,AZ,32.640144,-114.215206
Wellton Hills CDP,AZ,32.623189,-114.145234
Wenden CDP,AZ,33.83245,-113.543239
Wet Camp Village CDP,AZ,33.141223,-111.901662
Wheatfields CDP,AZ,33.470937,-110.816135
Whetstone CDP,AZ,31.718947,-110.291996
Whispering Pines CDP,AZ,34.372721,-111.281223
Whitecone CDP,AZ,35.5992,-110.079761
White Hills CDP,AZ,35.724209,-114.400368
White Mountain Lake CDP,AZ,34.344046,-109.986811
Whiteriver CDP,AZ,33.83976,-109.96077
Why CDP,AZ,32.258973,-112.730634
Wickenburg town,AZ,33.985756,-112.76834
Wide Ruins CDP,AZ,35.417387,-109.499551
Wikieup CDP,AZ,34.693034,-113.599504
Wilhoit CDP,AZ,34.408233,-112.615635
Willcox city,AZ,32.251804,-109.835698
Williams city,AZ,35.24664,-112.183296
Williamson CDP,AZ,34.708291,-112.533729
Willow Canyon CDP,AZ,32.387689,-110.700842
Willow Valley CDP,AZ,34.927658,-114.626599
Window Rock CDP,AZ,35.670505,-109.063037
Winkelman town,AZ,32.981677,-110.761687
Winslow city,AZ,35.024236,-110.709331
Winslow West CDP,AZ,34.992554,-110.706847
Wintersburg CDP,AZ,33.41963,-112.86765
Wittmann CDP,AZ,33.774957,-112.525091
Woodruff CDP,AZ,34.791876,-110.025944
Yarnell CDP,AZ,34.228202,-112.76292
York CDP,AZ,32.916258,-109.195402
Young CDP,AZ,34.124089,-110.938325
Youngtown town,AZ,33.584969,-112.304916
Yucca CDP,AZ,34.862993,-114.146145
Yuma city,AZ,32.516286,-114.521782
Yuma Proving Ground CDP,AZ,32.865186,-114.436923
Acorn CDP,AR,34.638786,-94.200112
Adona city,AR,35.03993,-92.899132
Alexander city,AR,34.618588,-92.451217
Alicia town,AR,35.892907,-91.08345
Alix CDP,AR,35.422002,-93.728784
Alleene CDP,AR,33.764823,-94.262198
Allport town,AR,34.539866,-91.783886
Alma city,AR,35.492375,-94.213947
Almyra town,AR,34.405689,-91.410847
Alpena town,AR,36.292748,-93.303607
Alpine CDP,AR,34.226886,-93.378321
Altheimer city,AR,34.327434,-91.847282
Altus city,AR,35.44956,-93.765258
Amagon town,AR,35.563173,-91.109415
Amity city,AR,34.26619,-93.463423
Anthonyville town,AR,35.039831,-90.340328
Antoine town,AR,34.034536,-93.421361
Aplin CDP,AR,34.967483,-92.981271
Appleton CDP,AR,35.410823,-92.875276
Arkadelphia city,AR,34.12738,-93.070851
Arkansas City city,AR,33.608876,-91.204896
Armorel CDP,AR,35.925571,-89.797959
Ashdown city,AR,33.674529,-94.126627
Ash Flat city,AR,36.236559,-91.606512
Atkins city,AR,35.240863,-92.949643
Aubrey town,AR,34.719817,-90.897981
Augusta city,AR,35.28655,-91.36086
Austin city,AR,35.005912,-91.989609
Avilla CDP,AR,34.694843,-92.586141
Avoca town,AR,36.394697,-94.06577
Bald Knob city,AR,35.312539,-91.571253
Banks town,AR,33.575796,-92.267101
Barling city,AR,35.331286,-94.275195
Bassett town,AR,35.535577,-90.129434
Batavia CDP,AR,36.247852,-93.215771
Batesville city,AR,35.768572,-91.622652
Bauxite town,AR,34.554483,-92.505794
Bay city,AR,35.746057,-90.552143
Bearden city,AR,33.727651,-92.618678
Beaver town,AR,36.473994,-93.777335
Beebe city,AR,35.072433,-91.901059
Bee Branch CDP,AR,35.462622,-92.401023
Beedeville town,AR,35.429169,-91.110738
Beirne CDP,AR,33.888208,-93.206223
Bella Vista city,AR,36.466641,-94.266317
Bellefonte town,AR,36.199864,-93.047039
Belleville city,AR,35.09153,-93.445774
Ben Lomond town,AR,33.829113,-94.123319
Benton city,AR,34.577424,-92.572583
Bentonville city,AR,36.352662,-94.231181
Bergman town,AR,36.312786,-93.011221
Berryville city,AR,36.37028,-93.568335
Bethesda CDP,AR,35.787096,-91.792711
Bigelow town,AR,34.997795,-92.631175
Big Flat town,AR,36.003394,-92.41022
Biggers town,AR,36.331361,-90.800701
Birdsong town,AR,35.461161,-90.259761
Bismarck CDP,AR,34.321837,-93.178139
Black Oak town,AR,35.836394,-90.36755
Black Rock city,AR,36.106237,-91.10748
Black Springs town,AR,34.455977,-93.713115
Blevins city,AR,33.871251,-93.578187
Blue Eye town,AR,36.496667,-93.39771
Blue Mountain town,AR,35.131796,-93.716666
Bluff City town,AR,33.735118,-93.124564
Blytheville city,AR,35.934066,-89.905133
Board Camp CDP,AR,34.532519,-94.079674
Bodcaw town,AR,33.56364,-93.393036
Boles CDP,AR,34.788119,-94.049397
Bonanza city,AR,35.231794,-94.416133
Bono city,AR,35.911102,-90.800821
Booneville city,AR,35.139329,-93.9175
Bowman CDP,AR,35.816835,-90.496228
Bradford city,AR,35.422004,-91.455232
Bradley city,AR,33.100106,-93.656895
Branch city,AR,35.308303,-93.95537
Briarcliff city,AR,36.271968,-92.28209
Brinkley city,AR,34.889781,-91.189819
Brookland city,AR,35.900552,-90.578174
Bryant city,AR,34.615059,-92.491338
Buckner city,AR,33.35727,-93.435556
Buffalo City CDP,AR,36.169075,-92.437942
Bull Shoals city,AR,36.37357,-92.591504
Burdette town,AR,35.815273,-89.946421
Cabot city,AR,34.975106,-92.028288
Caddo Gap CDP,AR,34.402494,-93.617881
Caddo Valley town,AR,34.180746,-93.084597
Caldwell town,AR,35.074794,-90.809455
Cale town,AR,33.627888,-93.232797
Calico Rock city,AR,36.121965,-92.125913
Calion city,AR,33.328406,-92.540187
Camden city,AR,33.567672,-92.849064
Cammack Village city,AR,34.7808,-92.344976
Campbell Station city,AR,35.667799,-91.253754
Canehill CDP,AR,35.913765,-94.397321
Caraway city,AR,35.760222,-90.322081
Carlisle city,AR,34.795425,-91.740494
Carthage city,AR,34.072605,-92.555312
Casa town,AR,35.024966,-93.045507
Cash town,AR,35.801157,-90.931648
Caulksville town,AR,35.301849,-93.867806
Cave City city,AR,35.947801,-91.546977
Cave Springs city,AR,36.274121,-94.223599
Cedarville city,AR,35.58397,-94.361897
Center Point CDP,AR,34.031828,-93.951166
Center Ridge CDP,AR,35.380707,-92.575626
Centerton city,AR,36.355148,-94.297692
Centerville CDP,AR,35.115702,-93.171461
Central City town,AR,35.336374,-94.238044
Charleston city,AR,35.294515,-94.04835
Cherokee City CDP,AR,36.294698,-94.576804
Cherokee Village city,AR,36.291321,-91.569368
Cherry Valley city,AR,35.388222,-90.771111
Chester town,AR,35.677772,-94.177828
Chidester city,AR,33.701947,-93.023799
Cincinnati CDP,AR,36.045324,-94.527314
Clarendon city,AR,34.692974,-91.306292
Clarkedale city,AR,35.297028,-90.21025
Clarksville city,AR,35.453918,-93.481558
Clinton city,AR,35.578981,-92.455735
Coal Hill city,AR,35.436892,-93.665193
College Station CDP,AR,34.700535,-92.228432
Collins CDP,AR,33.532266,-91.57244
Colt city,AR,35.132897,-90.812933
Concord town,AR,35.66633,-91.860623
Conway city,AR,35.074404,-92.467004
Corinth town,AR,35.069508,-93.420089
Corning city,AR,36.413682,-90.583609
Cotter city,AR,36.281898,-92.520821
Cotton Plant city,AR,35.005918,-91.25205
Cove town,AR,34.438983,-94.422321
Coy town,AR,34.540484,-91.871295
Crawfordsville town,AR,35.226672,-90.324168
Crossett city,AR,33.122819,-91.958081
Crystal Springs CDP,AR,34.524828,-93.333623
Cushman city,AR,35.865844,-91.778081
Daisy town,AR,34.235924,-93.739193
Damascus town,AR,35.367092,-92.410712
Danville city,AR,35.052457,-93.391199
Dardanelle city,AR,35.226305,-93.165909
Datto town,AR,36.392471,-90.728499
Decatur city,AR,36.348527,-94.458044
Deer CDP,AR,35.828023,-93.219622
Delaplaine town,AR,36.230409,-90.725667
Delight city,AR,34.02953,-93.506555
Dell town,AR,35.857166,-90.034076
Dennard CDP,AR,35.747919,-92.549999
Denning town,AR,35.425153,-93.756758
De Queen city,AR,34.042245,-94.342133
Dermott city,AR,33.526206,-91.432296
Des Arc city,AR,34.978433,-91.506835
Desha CDP,AR,35.730455,-91.685579
De Valls Bluff city,AR,34.785865,-91.461071
DeWitt city,AR,34.287369,-91.338326
Diamond City city,AR,36.457609,-92.910989
Diamondhead city,AR,34.439572,-92.957986
Diaz city,AR,35.648773,-91.258933
Dierks city,AR,34.119961,-94.017283
Donaldson town,AR,34.234976,-92.919517
Dora CDP,AR,35.462964,-94.429869
Dover city,AR,35.390981,-93.114241
Drasco CDP,AR,35.633775,-91.941776
Dumas city,AR,33.883372,-91.485632
Dyer city,AR,35.494367,-94.138805
Dyess town,AR,35.589338,-90.213293
Earle city,AR,35.273379,-90.464304
East Camden town,AR,33.608421,-92.744966
East End CDP,AR,34.554505,-92.327475
Edgemont CDP,AR,35.600686,-92.196371
Edmondson town,AR,35.105035,-90.305452
Egypt town,AR,35.867775,-90.945834
Elaine city,AR,34.308603,-90.853349
El Dorado city,AR,33.218982,-92.664071
Elkins city,AR,36.017217,-94.023497
Elm Springs city,AR,36.206224,-94.237904
El Paso CDP,AR,35.115298,-92.081189
Emerson town,AR,33.097328,-93.195976
Emmet city,AR,33.722539,-93.466156
England city,AR,34.545431,-91.967442
Enola town,AR,35.195907,-92.206581
Etowah town,AR,35.715758,-90.230682
Eudora city,AR,33.118866,-91.264033
Eureka Springs city,AR,36.410774,-93.744904
Evansville CDP,AR,35.790635,-94.488844
Evening Shade city,AR,36.069933,-91.621881
Everton town,AR,36.15414,-92.909538
Fairfield Bay city,AR,35.601101,-92.266208
Fair Oaks CDP,AR,35.247988,-91.036016
Fargo town,AR,34.953995,-91.179744
Farmington city,AR,36.036581,-94.252466
Fayetteville city,AR,36.071455,-94.166564
Felsenthal town,AR,33.060826,-92.148961
Fifty-Six city,AR,35.96351,-92.233355
Fisher city,AR,35.491424,-90.972494
Flippin city,AR,36.27732,-92.59353
Floral CDP,AR,35.588939,-91.758932
Floyd CDP,AR,35.198879,-91.96453
Fordyce city,AR,33.818236,-92.416972
Foreman city,AR,33.719494,-94.397668
Forrest City city,AR,35.013599,-90.793207
Fort Smith city,AR,35.349276,-94.370883
Fouke city,AR,33.262235,-93.88523
Fountain Hill town,AR,33.357545,-91.851141
Fountain Lake town,AR,34.609682,-92.920447
Fourche town,AR,34.993128,-92.618944
Fox CDP,AR,35.784398,-92.299626
Franklin town,AR,36.1727,-91.769724
Fredonia (Biscoe) town,AR,34.81937,-91.41016
Friendship town,AR,34.224344,-93.00366
Fulton town,AR,33.612565,-93.813795
Gamaliel CDP,AR,36.45189,-92.236928
Garfield city,AR,36.45535,-93.97595
Garland town,AR,33.360958,-93.71417
Garner town,AR,35.142496,-91.779184
Gassville city,AR,36.284949,-92.48683
Gateway town,AR,36.488902,-93.933087
Genoa CDP,AR,33.377487,-93.882415
Gentry city,AR,36.258305,-94.486768
Georgetown town,AR,35.126678,-91.453923
Gibson CDP,AR,34.902228,-92.240817
Gilbert town,AR,35.990981,-92.716181
Gillett city,AR,34.119172,-91.379133
Gillham town,AR,34.168628,-94.312977
Gilmore city,AR,35.413994,-90.29558
Glenwood city,AR,34.328314,-93.527255
Goodwin CDP,AR,34.940726,-91.003576
Goshen town,AR,36.102458,-94.001579
Gosnell city,AR,35.964937,-89.968577
Gould city,AR,33.987194,-91.564038
Grady city,AR,34.072492,-91.697637
Grannis city,AR,34.240165,-94.321995
Gravette city,AR,36.428296,-94.368529
Greenbrier city,AR,35.228811,-92.383563
Green Forest city,AR,36.33471,-93.430962
Greenland city,AR,35.996194,-94.19089
Greenway city,AR,36.340577,-90.222124
Greenwood city,AR,35.211348,-94.239444
Greers Ferry city,AR,35.574966,-92.165959
Gregory CDP,AR,35.153332,-91.334241
Griffithville town,AR,35.123053,-91.64497
Grubbs city,AR,35.653999,-91.075464
Guion town,AR,35.926834,-91.938927
Gum Springs town,AR,34.063937,-93.095709
Gurdon city,AR,33.916032,-93.15391
Guy city,AR,35.326067,-92.33756
Hackett city,AR,35.188027,-94.410341
Hagarville CDP,AR,35.515017,-93.332135
Halley CDP,AR,33.536255,-91.323651
Hamburg city,AR,33.224755,-91.797247
Hampton city,AR,33.534763,-92.466607
Hardy city,AR,36.319645,-91.481503
Harrell town,AR,33.509869,-92.400061
Harrisburg city,AR,35.563991,-90.721647
Harrison city,AR,36.242592,-93.11765
Hartford city,AR,35.023433,-94.379406
Hartman city,AR,35.43525,-93.628245
Haskell city,AR,34.509238,-92.641861
Hatfield town,AR,34.484507,-94.37991
Hattieville CDP,AR,35.295226,-92.775351
Havana city,AR,35.109809,-93.526022
Haynes town,AR,34.890933,-90.792662
Hazen city,AR,34.781368,-91.558058
Heber Springs city,AR,35.499554,-92.029339
Hector town,AR,35.462913,-92.97913
Helena-West Helena city,AR,34.531363,-90.620098
Henderson CDP,AR,36.377214,-92.218918
Hensley CDP,AR,34.51041,-92.209517
Hermitage city,AR,33.447372,-92.171455
Hickory Ridge city,AR,35.402812,-90.994458
Higden town,AR,35.566406,-92.20518
Higginson town,AR,35.196813,-91.715175
Highfill town,AR,36.274375,-94.323862
Highland city,AR,36.269429,-91.519824
Hindsville town,AR,36.147719,-93.86488
Holiday Island city,AR,36.484211,-93.736832
Holland city,AR,35.166012,-92.277049
Holly Grove city,AR,34.601497,-91.200255
Hope city,AR,33.668164,-93.588885
Horatio city,AR,33.942739,-94.356201
Horseshoe Bend city,AR,36.218726,-91.738324
Horseshoe Lake town,AR,34.913753,-90.307722
Hot Springs city,AR,34.489442,-93.050254
Hot Springs Village CDP,AR,34.658069,-92.968643
Houston town,AR,35.034879,-92.694525
Hoxie city,AR,36.036041,-90.973588
Hughes city,AR,34.948109,-90.471372
Humnoke city,AR,34.542242,-91.759656
Humphrey city,AR,34.42237,-91.702454
Hunter town,AR,35.054558,-91.122856
Huntington city,AR,35.08171,-94.266319
Huntsville city,AR,36.098656,-93.733244
Huttig city,AR,33.04032,-92.179678
Imboden town,AR,36.199696,-91.177386
Indian Bay CDP,AR,34.38712,-91.069561
Ivan CDP,AR,33.901968,-92.433196
Jacksonport town,AR,35.642177,-91.307914
Jacksonville city,AR,34.877908,-92.131475
Jasper city,AR,36.012102,-93.1875
Jennette town,AR,35.158127,-90.418765
Jericho town,AR,35.287677,-90.230466
Jerome CDP,AR,33.397236,-91.470514
Jerusalem CDP,AR,35.40757,-92.823013
Johnson city,AR,36.133854,-94.174269
Joiner city,AR,35.50739,-90.150706
Jonesboro city,AR,35.819755,-90.679033
Jones Mills CDP,AR,34.444947,-92.901539
Judsonia city,AR,35.276431,-91.641614
Junction City city,AR,33.022091,-92.723616
Keiser city,AR,35.674224,-90.096848
Kensett city,AR,35.2352,-91.671256
Keo town,AR,34.609287,-92.011566
Kibler city,AR,35.425237,-94.236145
Kingsland city,AR,33.857975,-92.297789
Kingston CDP,AR,36.056744,-93.514735
Kirby CDP,AR,34.254291,-93.654873
Knobel city,AR,36.319986,-90.602266
Knoxville town,AR,35.377537,-93.361839
Lacey CDP,AR,33.450347,-91.849554
Lafe town,AR,36.209178,-90.504292
LaGrange town,AR,34.655757,-90.734742
Lake City city,AR,35.81937,-90.453905
Lake Hamilton CDP,AR,34.429621,-93.076352
Lakeview city,AR,36.373907,-92.538735
Lake View city,AR,34.42116,-90.813314
Lake Village city,AR,33.32918,-91.284794
Lamar city,AR,35.444425,-93.394675
Landmark CDP,AR,34.610352,-92.316045
Lavaca city,AR,35.330199,-94.182885
Lawson CDP,AR,33.19996,-92.487896
Leachville city,AR,35.911468,-90.254955
Lead Hill town,AR,36.413611,-92.907167
Leola town,AR,34.170087,-92.591412
Lepanto city,AR,35.608528,-90.332985
Leslie city,AR,35.829508,-92.555961
Letona town,AR,35.363502,-91.829547
Lewisville city,AR,33.360132,-93.583971
Lexa town,AR,34.598248,-90.751887
Lincoln city,AR,35.948834,-94.417468
Little Flock city,AR,36.383335,-94.137265
Little Rock city,AR,34.725393,-92.358556
Lockesburg city,AR,33.972871,-94.179584
London city,AR,35.327616,-93.243466
Lonoke city,AR,34.790501,-91.907362
Lonsdale town,AR,34.544967,-92.810563
Lost Bridge Village CDP,AR,36.389728,-93.915536
Louann town,AR,33.391481,-92.792214
Lowell city,AR,36.255855,-94.153356
Luxora city,AR,35.757672,-89.92948
Lynn town,AR,36.004263,-91.252
McAlmont CDP,AR,34.792492,-92.196013
McCaskill town,AR,33.919539,-93.636831
McCrory city,AR,35.257326,-91.197276
McDougal town,AR,36.436465,-90.390727
McGehee city,AR,33.627794,-91.39501
McNab town,AR,33.660895,-93.832282
McNeil city,AR,33.347917,-93.208404
McRae city,AR,35.113627,-91.826194
Madison city,AR,35.017993,-90.73115
Magazine city,AR,35.153901,-93.807851
Magness town,AR,35.703055,-91.482237
Magnet Cove CDP,AR,34.449161,-92.837719
Magnolia city,AR,33.276698,-93.226247
Malvern city,AR,34.373579,-92.82125
Mammoth Spring city,AR,36.49241,-91.541067
Manila city,AR,35.884371,-90.165562
Mansfield city,AR,35.063915,-94.234269
Marianna city,AR,34.77363,-90.767501
Marie town,AR,35.612931,-90.082963
Marion city,AR,35.204246,-90.206715
Marked Tree city,AR,35.527889,-90.42661
Marmaduke city,AR,36.190028,-90.385061
Marshall city,AR,35.908461,-92.646498
Marvell city,AR,34.556304,-90.915338
Maumelle city,AR,34.852344,-92.399995
Mayflower city,AR,34.966196,-92.426728
Maynard town,AR,36.42272,-90.901845
Maysville CDP,AR,36.401975,-94.588951
Melbourne city,AR,36.063971,-91.881521
Mellwood CDP,AR,34.215475,-90.944687
Mena city,AR,34.58184,-94.236518
Menifee town,AR,35.149702,-92.55042
Midland town,AR,35.092403,-94.352955
Midway CDP,AR,36.39224,-92.475532
Midway town,AR,34.249893,-92.973433
Mineral Springs city,AR,33.877723,-93.921386
Minturn town,AR,35.976417,-91.027188
Mitchellville city,AR,33.905333,-91.498398
Monette city,AR,35.893208,-90.344106
Monroe CDP,AR,34.73404,-91.106766
Monticello city,AR,33.624778,-91.793722
Montrose city,AR,33.298925,-91.49644
Moorefield town,AR,35.767228,-91.570807
Moro town,AR,34.791976,-90.987984
Morrilton city,AR,35.155456,-92.738932
Morrison Bluff town,AR,35.381952,-93.518854
Morrow CDP,AR,35.856329,-94.430562
Mountainburg city,AR,35.649625,-94.162407
Mountain Home city,AR,36.335093,-92.384249
Mountain Pine city,AR,34.569642,-93.171493
Mountain View city,AR,35.861559,-92.109657
Mount Holly CDP,AR,33.307223,-92.950213
Mount Ida city,AR,34.549154,-93.629939
Mount Judea CDP,AR,35.926173,-93.056804
Mount Olive CDP,AR,36.003119,-92.090465
Mount Pleasant town,AR,35.981423,-91.777383
Mount Vernon town,AR,35.223605,-92.12398
Mulberry city,AR,35.5085,-94.074753
Murfreesboro city,AR,34.070312,-93.694073
Nashville city,AR,33.941924,-93.851658
Natural Steps CDP,AR,34.874266,-92.497772
Newark city,AR,35.70763,-91.4434
New Blaine CDP,AR,35.29252,-93.419083
New Edinburg CDP,AR,33.756223,-92.240365
Newhope CDP,AR,34.222258,-93.877396
Newport city,AR,35.623772,-91.231682
Nimmons town,AR,36.30625,-90.095055
Norfork city,AR,36.209469,-92.277844
Norman town,AR,34.458977,-93.676824
Norphlet city,AR,33.31991,-92.662056
North Crossett CDP,AR,33.174113,-91.931736
North Little Rock city,AR,34.781752,-92.235057
Oak Grove town,AR,36.470205,-93.42809
Oak Grove CDP,AR,35.364779,-92.964179
Oak Grove Heights town,AR,36.126432,-90.503435
Oakhaven town,AR,33.729396,-93.620783
Oakland CDP,AR,36.460423,-92.571771
Oark CDP,AR,35.694977,-93.575027
Oden town,AR,34.623149,-93.783646
Ogden city,AR,33.585869,-94.046917
Oil Trough town,AR,35.629162,-91.461229
O'Kean town,AR,36.171462,-90.818348
Okolona town,AR,34.000478,-93.337624
Ola city,AR,35.031448,-93.224035
Omaha town,AR,36.461647,-93.189964
Oneida CDP,AR,34.460486,-90.786721
Oppelo city,AR,35.100558,-92.773566
Osceola city,AR,35.690217,-89.988295
Oxford city,AR,36.20903,-91.918268
Ozan town,AR,33.846611,-93.720822
Ozark city,AR,35.501858,-93.848378
Ozark Acres CDP,AR,36.299916,-91.387076
Ozone CDP,AR,35.638491,-93.447317
Palestine city,AR,34.970307,-90.908225
Pangburn city,AR,35.426108,-91.839411
Paragould city,AR,36.052289,-90.510464
Paris city,AR,35.290756,-93.734228
Parkdale city,AR,33.121215,-91.546399
Parkin city,AR,35.261175,-90.553508
Patmos town,AR,33.511369,-93.566956
Patterson city,AR,35.258973,-91.234957
Payneway CDP,AR,35.545728,-90.512297
Peach Orchard city,AR,36.281229,-90.660774
Pearcy CDP,AR,34.435455,-93.288217
Pea Ridge city,AR,36.446651,-94.120807
Pencil Bluff CDP,AR,34.630384,-93.735033
Perla town,AR,34.364755,-92.776228
Perry town,AR,35.046221,-92.79441
Perrytown town,AR,33.697141,-93.532407
Perryville city,AR,35.012,-92.802938
Piggott city,AR,36.387191,-90.198944
Pindall town,AR,36.063663,-92.862158
Pine Bluff city,AR,34.211591,-92.017555
Pineville town,AR,36.161145,-92.106471
Piney CDP,AR,34.502914,-93.144427
Plainview city,AR,34.989874,-93.297948
Pleasant Grove CDP,AR,35.820465,-91.906976
Pleasant Plains town,AR,35.554559,-91.627225
Plumerville city,AR,35.159377,-92.643059
Pocahontas city,AR,36.263366,-90.971224
Pollard city,AR,36.429561,-90.267129
Ponca CDP,AR,36.029292,-93.362376
Poplar Grove CDP,AR,34.552169,-90.854223
Portia town,AR,36.084865,-91.071044
Portland city,AR,33.237935,-91.510945
Pottsville city,AR,35.230606,-93.060839
Powhatan town,AR,36.087312,-91.123884
Poyen town,AR,34.324169,-92.641976
Prairie Creek CDP,AR,36.329478,-94.058933
Prairie Grove city,AR,35.986113,-94.303383
Prattsville town,AR,34.318495,-92.543146
Prescott city,AR,33.80432,-93.391207
Princeton CDP,AR,33.97754,-92.624178
Pyatt town,AR,36.250744,-92.846637
Quitman city,AR,35.381723,-92.214724
Ratcliff city,AR,35.306946,-93.888636
Ravenden town,AR,36.243201,-91.251307
Ravenden Springs town,AR,36.312705,-91.223265
Reader CDP,AR,33.75161,-93.101184
Rector city,AR,36.264158,-90.293518
Redfield city,AR,34.439337,-92.188484
Reed town,AR,33.701672,-91.445758
Reyno city,AR,36.360899,-90.758993
Rison city,AR,33.959951,-92.193648
Rivervale CDP,AR,35.675877,-90.3445
Rockport city,AR,34.405268,-92.808592
Rockwell CDP,AR,34.464341,-93.133829
Roe town,AR,34.631101,-91.385963
Rogers city,AR,36.318085,-94.152287
Roland CDP,AR,34.90224,-92.517469
Rondo town,AR,34.657447,-90.820842
Rose Bud town,AR,35.321183,-92.076515
Rosston town,AR,33.588019,-93.286934
Rover CDP,AR,34.951824,-93.408964
Rudy town,AR,35.527455,-94.240384
Russell town,AR,35.362126,-91.509947
Russellville city,AR,35.276876,-93.137515
Rye CDP,AR,33.750475,-91.998485
St. Charles town,AR,34.372999,-91.137446
St. Francis city,AR,36.454872,-90.142179
St. Joe town,AR,36.026028,-92.801276
St. Paul town,AR,35.826791,-93.767285
Salado CDP,AR,35.695405,-91.592317
Salem city,AR,36.370416,-91.821706
Salem CDP,AR,34.630899,-92.561492
Salesville city,AR,36.23906,-92.277495
Saratoga CDP,AR,33.743741,-93.904289
Sardis CDP,AR,34.533041,-92.406722
Scott CDP,AR,34.69766,-92.093932
Scranton city,AR,35.36043,-93.539724
Searcy city,AR,35.241134,-91.735223
Sedgwick town,AR,35.974161,-90.862149
Shannon Hills city,AR,34.617586,-92.402176
Sheridan city,AR,34.321575,-92.443067
Sherrill town,AR,34.385065,-91.951808
Sherwood city,AR,34.852029,-92.204483
Shirley town,AR,35.643751,-92.313519
Sidney town,AR,36.004421,-91.658289
Siloam Springs city,AR,36.185382,-94.530029
Smackover city,AR,33.363589,-92.731425
Smithville town,AR,36.079921,-91.302675
South Lead Hill town,AR,36.395614,-92.906209
Southside city,AR,35.720183,-91.630162
Sparkman city,AR,33.917168,-92.849997
Springdale city,AR,36.191438,-94.155062
Springfield CDP,AR,35.272887,-92.554988
Springtown town,AR,36.260285,-94.423812
Stamps city,AR,33.354959,-93.497879
Star City city,AR,33.940776,-91.83995
Staves CDP,AR,34.033579,-92.280583
Stephens city,AR,33.420916,-93.06959
Strawberry town,AR,35.966523,-91.321102
Strong city,AR,33.107883,-92.355573
Stuttgart city,AR,34.495233,-91.548638
Subiaco town,AR,35.297367,-93.639439
Success town,AR,36.454501,-90.722625
Sulphur Rock town,AR,35.751613,-91.500264
Sulphur Springs city,AR,36.484076,-94.460095
Sulphur Springs CDP,AR,34.17145,-92.132055
Summers CDP,AR,35.987194,-94.482872
Summit city,AR,36.252203,-92.688287
Sunset town,AR,35.223979,-90.205642
Sweet Home CDP,AR,34.667397,-92.246304
Swifton city,AR,35.824376,-91.129429
Taylor city,AR,33.099802,-93.461843
Texarkana city,AR,33.436339,-93.987118
Thornton city,AR,33.774876,-92.487651
Tillar city,AR,33.711,-91.451812
Tinsman town,AR,33.629183,-92.353295
Tollette town,AR,33.818095,-93.896899
Tontitown city,AR,36.167388,-94.242128
Traskwood city,AR,34.452451,-92.666438
Trumann city,AR,35.67698,-90.526094
Tucker CDP,AR,34.439523,-91.951907
Tuckerman city,AR,35.725641,-91.202079
Tull town,AR,34.441214,-92.585881
Tumbling Shoals CDP,AR,35.547053,-91.96746
Tupelo town,AR,35.390332,-91.229904
Turrell city,AR,35.374609,-90.270384
Twin Groves town,AR,35.329207,-92.405668
Tyronza city,AR,35.486771,-90.356008
Ulm town,AR,34.576229,-91.461691
Uniontown CDP,AR,35.585222,-94.446997
Urbana CDP,AR,33.158452,-92.445361
Valley Springs town,AR,36.153768,-92.989698
Van Buren city,AR,35.451176,-94.354003
Vandervoort town,AR,34.379781,-94.364919
Vanndale CDP,AR,35.315292,-90.771114
Victoria town,AR,35.757424,-90.060145
Vilonia city,AR,35.078702,-92.215387
Viola town,AR,36.399237,-91.986977
Violet Hill CDP,AR,36.152899,-91.839723
Wabbaseka town,AR,34.359805,-91.793777
Walcott CDP,AR,36.046118,-90.670497
Waldenburg town,AR,35.565255,-90.934561
Waldo city,AR,33.351923,-93.295393
Waldron city,AR,34.903252,-94.094839
Walnut Ridge city,AR,36.084796,-90.94684
Ward city,AR,35.013782,-91.957727
Warm Springs CDP,AR,36.483148,-91.049008
Warren city,AR,33.611829,-92.067718
Washington city,AR,33.772882,-93.683293
Watson city,AR,33.89375,-91.257061
Wayton CDP,AR,35.919363,-93.259588
Weiner city,AR,35.619714,-90.905303
Weldon town,AR,35.447994,-91.231606
Wesley CDP,AR,36.032535,-93.918624
West Crossett CDP,AR,33.148043,-92.016978
Western Grove town,AR,36.101118,-92.954554
West Fork city,AR,35.934924,-94.18111
West Memphis city,AR,35.149554,-90.199266
West Point town,AR,35.203307,-91.609897
Wheatley city,AR,34.921186,-91.106255
Whelen Springs town,AR,33.833144,-93.126029
White Hall city,AR,34.275179,-92.100649
Wickes town,AR,34.299736,-94.327252
Widener town,AR,35.023498,-90.681934
Wiederkehr Village city,AR,35.477705,-93.764725
Wilburn CDP,AR,35.508788,-91.888375
Williford town,AR,36.251832,-91.360457
Willisville town,AR,33.516119,-93.293665
Wilmar city,AR,33.626384,-91.929342
Wilmot city,AR,33.056963,-91.577858
Wilson city,AR,35.565961,-90.0418
Wilton city,AR,33.738728,-94.147987
Winchester town,AR,33.774074,-91.4737
Winslow city,AR,35.801542,-94.131779
Winthrop city,AR,33.830837,-94.354222
Witts Springs CDP,AR,35.770268,-92.882285
Woodlawn CDP,AR,33.966736,-92.045239
Woodson CDP,AR,34.539726,-92.222549
Wooster town,AR,35.199919,-92.450204
Wrightsville city,AR,34.620714,-92.219607
Wynne city,AR,35.235224,-90.788513
Yarborough Landing CDP,AR,33.718829,-94.009261
Yellville city,AR,36.228846,-92.686123
Zinc town,AR,36.283959,-92.914422
Acalanes Ridge CDP,CA,37.904725,-122.078567
Acampo CDP,CA,38.173529,-121.279892
Acton CDP,CA,34.49607,-118.183897
Adelanto city,CA,34.580902,-117.439458
Adin CDP,CA,41.199312,-120.956779
Agoura Hills city,CA,34.148942,-118.76393
Agua Dulce CDP,CA,34.501678,-118.32068
Aguanga CDP,CA,33.452287,-116.85547
Ahwahnee CDP,CA,37.365423,-119.716561
Airport CDP,CA,37.633883,-120.972006
Alameda city,CA,37.741911,-122.259914
Alamo CDP,CA,37.854768,-122.013557
Albany city,CA,37.89065,-122.318116
Albion CDP,CA,39.225327,-123.757586
Alderpoint CDP,CA,40.161347,-123.615729
Alhambra city,CA,34.083571,-118.136444
Alhambra Valley CDP,CA,37.966744,-122.135998
Aliso Viejo city,CA,33.57921,-117.728898
Alleghany CDP,CA,39.46666,-120.841126
Allendale CDP,CA,38.442986,-121.98333
Allensworth CDP,CA,35.849878,-119.389209
Almanor CDP,CA,40.214494,-121.17622
Alondra Park CDP,CA,33.890155,-118.335678
Alpaugh CDP,CA,35.889037,-119.485809
Alpine CDP,CA,32.842487,-116.755911
Alpine Village CDP,CA,38.779346,-119.807785
Alta CDP,CA,39.215685,-120.798509
Altadena CDP,CA,34.192212,-118.135589
Alta Sierra CDP,CA,35.725776,-118.545166
Alta Sierra CDP,CA,39.126174,-121.049085
Alto CDP,CA,37.905581,-122.518718
Alturas city,CA,41.489136,-120.551286
Alum Rock CDP,CA,37.369387,-121.823806
Amador City city,CA,38.418994,-120.823263
Amador Pines CDP,CA,38.489631,-120.533305
American Canyon city,CA,38.179033,-122.259602
Amesti CDP,CA,36.959483,-121.781739
Anaheim city,CA,33.855502,-117.758657
Anchor Bay CDP,CA,38.812653,-123.570267
Anderson city,CA,40.449755,-122.29507
Angels city,CA,38.071037,-120.551729
Angwin CDP,CA,38.577875,-122.451224
Antelope CDP,CA,38.71533,-121.360962
Antioch city,CA,37.978336,-121.796064
Anza CDP,CA,33.56159,-116.696066
Apple Valley town,CA,34.533376,-117.210358
Aptos CDP,CA,36.99115,-121.893457
Aptos Hills-Larkin Valley CDP,CA,36.963492,-121.835214
Arbuckle CDP,CA,39.014185,-122.061041
Arcadia city,CA,34.132689,-118.036347
Arcata city,CA,40.862291,-124.074967
Arden-Arcade CDP,CA,38.600647,-121.384643
Armona CDP,CA,36.316607,-119.70538
Arnold CDP,CA,38.249049,-120.349327
Aromas CDP,CA,36.874755,-121.630732
Arroyo Grande city,CA,35.124149,-120.584533
Artesia city,CA,33.867591,-118.080634
Artois CDP,CA,39.633179,-122.189758
Arvin city,CA,35.194361,-118.830569
Ashland CDP,CA,37.694197,-122.115937
Aspen Springs CDP,CA,37.548791,-118.699663
Atascadero city,CA,35.485718,-120.687942
Atherton town,CA,37.457072,-122.201058
Atwater city,CA,37.354049,-120.597177
Auberry CDP,CA,37.088654,-119.450757
Auburn city,CA,38.895075,-121.076739
Auburn Lake Trails CDP,CA,38.886238,-120.979699
August CDP,CA,37.979644,-121.26251
Avalon city,CA,33.343335,-118.317615
Avenal city,CA,36.031107,-120.116174
Avery CDP,CA,38.206826,-120.372262
Avila Beach CDP,CA,35.199355,-120.720757
Avocado Heights CDP,CA,34.039039,-117.998167
Azusa city,CA,34.138524,-117.912253
Baker CDP,CA,35.276918,-116.071735
Bakersfield city,CA,35.353171,-119.037919
Bakersfield Country Club CDP,CA,35.389891,-118.940915
Baldwin Park city,CA,34.082824,-117.971286
Ballard CDP,CA,34.639948,-120.110989
Ballico CDP,CA,37.451917,-120.703707
Bangor CDP,CA,39.376087,-121.411654
Banning city,CA,33.945903,-116.899044
Barstow city,CA,34.866987,-117.043035
Bass Lake CDP,CA,37.327282,-119.565326
Bay Point CDP,CA,38.032254,-121.962236
Bayview CDP,CA,38.006234,-122.320165
Bayview CDP,CA,40.76536,-124.178624
Baywood Park CDP,CA,37.529163,-122.341637
Beale AFB CDP,CA,39.108061,-121.351215
Bear Creek CDP,CA,37.296601,-120.417676
Bear Valley CDP,CA,38.472321,-120.051847
Bear Valley CDP,CA,37.57474,-120.136098
Bear Valley Springs CDP,CA,35.178355,-118.669618
Beaumont city,CA,33.876722,-116.953009
Beckwourth CDP,CA,39.843931,-120.414009
Belden CDP,CA,40.006783,-121.248191
Bell city,CA,33.979704,-118.179249
Bella Vista CDP,CA,40.651205,-122.25637
Bell Canyon CDP,CA,34.208148,-118.687574
Bellflower city,CA,33.887821,-118.12725
Bell Gardens city,CA,33.964379,-118.154437
Belmont city,CA,37.514398,-122.294475
Belvedere city,CA,37.873567,-122.470995
Benbow CDP,CA,40.060267,-123.765381
Bend CDP,CA,40.255092,-122.210916
Benicia city,CA,38.072733,-122.155169
Ben Lomond CDP,CA,37.078212,-122.088102
Benton CDP,CA,37.822438,-118.487687
Benton Park CDP,CA,35.346437,-119.029811
Berkeley city,CA,37.865673,-122.298725
Bermuda Dunes CDP,CA,33.74349,-116.287335
Berry Creek CDP,CA,39.631812,-121.405621
Bertsch-Oceanview CDP,CA,41.751727,-124.170214
Bethel Island CDP,CA,38.02813,-121.629851
Beverly Hills city,CA,34.07923,-118.402437
Bieber CDP,CA,41.138451,-121.117006
Big Bear City CDP,CA,34.254118,-116.796378
Big Bear Lake city,CA,34.242888,-116.893893
Big Bend CDP,CA,41.011624,-121.930434
Big Creek CDP,CA,37.203565,-119.248489
Biggs city,CA,39.411509,-121.711375
Big Lagoon CDP,CA,41.159427,-124.129746
Big Pine CDP,CA,37.165507,-118.296262
Big River CDP,CA,34.139823,-114.362099
Biola CDP,CA,36.799938,-120.021038
Bishop city,CA,37.366381,-118.395808
Blackhawk CDP,CA,37.809629,-121.913241
Blacklake CDP,CA,35.049689,-120.538642
Black Point-Green Point CDP,CA,38.110651,-122.519097
Blairsden CDP,CA,39.775205,-120.610845
Bloomfield CDP,CA,38.322069,-122.834464
Bloomington CDP,CA,34.060067,-117.401237
Blue Lake city,CA,40.880993,-123.994912
Bluewater CDP,CA,34.175431,-114.264962
Blythe city,CA,33.65352,-114.621823
Bodega CDP,CA,38.348841,-122.971164
Bodega Bay CDP,CA,38.327472,-123.029926
Bodfish CDP,CA,35.573416,-118.486441
Bolinas CDP,CA,37.917725,-122.709502
Bombay Beach CDP,CA,33.35561,-115.726902
Bonadelle Ranchos CDP,CA,36.968806,-119.892779
Bonita CDP,CA,32.673217,-117.006101
Bonny Doon CDP,CA,37.043577,-122.136972
Bonsall CDP,CA,33.274876,-117.191863
Boonville CDP,CA,39.011474,-123.374043
Bootjack CDP,CA,37.474044,-119.8838
Boron CDP,CA,35.01978,-117.665938
Boronda CDP,CA,36.694632,-121.674512
Borrego Springs CDP,CA,33.240965,-116.357119
Bostonia CDP,CA,32.818985,-116.942264
Boulder Creek CDP,CA,37.134099,-122.127208
Boulevard CDP,CA,32.664022,-116.289601
Bowles CDP,CA,36.608873,-119.752564
Boyes Hot Springs CDP,CA,38.312633,-122.488738
Bradbury city,CA,34.153159,-117.968818
Bradley CDP,CA,35.86284,-120.804268
Brawley city,CA,32.978454,-115.528569
Brea city,CA,33.925178,-117.865111
Brentwood city,CA,37.935578,-121.71897
Bret Harte CDP,CA,37.602078,-121.00438
Bridgeport CDP,CA,38.25521,-119.210424
Brisbane city,CA,37.67575,-122.383302
Broadmoor CDP,CA,37.691495,-122.481339
Brookdale CDP,CA,37.105732,-122.110623
Brooks CDP,CA,38.73688,-122.146807
Brooktrails CDP,CA,39.443283,-123.3938
Buckhorn CDP,CA,38.454797,-120.532334
Buck Meadows CDP,CA,37.807046,-120.075237
Bucks Lake CDP,CA,39.87956,-121.199081
Buellton city,CA,34.615497,-120.194237
Buena Park city,CA,33.857353,-118.007373
Buena Vista CDP,CA,38.297487,-120.917402
Burbank city,CA,34.190079,-118.326405
Burbank CDP,CA,37.321084,-121.930618
Burlingame city,CA,37.589952,-122.363342
Burney CDP,CA,40.889362,-121.675465
Burnt Ranch CDP,CA,40.811335,-123.508261
Butte Creek Canyon CDP,CA,39.744502,-121.707131
Butte Meadows CDP,CA,40.08531,-121.542683
Butte Valley CDP,CA,39.668815,-121.645888
Buttonwillow CDP,CA,35.409229,-119.440668
Byron CDP,CA,37.875644,-121.64212
Bystrom CDP,CA,37.61939,-120.981254
Cabazon CDP,CA,33.912726,-116.782831
Calabasas city,CA,34.134252,-118.666455
Calexico city,CA,32.684859,-115.494738
California City city,CA,35.14659,-117.869346
California Hot Springs CDP,CA,35.887568,-118.655022
California Pines CDP,CA,41.413786,-120.66531
California Polytechnic State University CDP,CA,35.306981,-120.667276
Calimesa city,CA,33.987349,-117.05424
Calipatria city,CA,33.168651,-115.485641
Calistoga city,CA,38.581408,-122.582696
Callender CDP,CA,35.047972,-120.575908
Calpella CDP,CA,39.233721,-123.19376
Calpine CDP,CA,39.663381,-120.439277
Calwa CDP,CA,36.713477,-119.76086
Camanche North Shore CDP,CA,38.244218,-120.953915
Camanche Village CDP,CA,38.266481,-120.986575
Camarillo city,CA,34.221823,-119.032154
Cambria CDP,CA,35.552069,-121.084137
Cambrian Park CDP,CA,37.256059,-121.928778
Cameron Park CDP,CA,38.674029,-120.988338
Camino CDP,CA,38.742265,-120.680811
Camino Tassajara CDP,CA,37.790886,-121.885052
Campbell city,CA,37.280244,-121.953296
Camp Nelson CDP,CA,36.141978,-118.61071
Campo CDP,CA,32.640965,-116.474516
Campo Seco CDP,CA,38.220743,-120.859054
Camp Pendleton Mainside CDP,CA,33.307209,-117.331048
Camp Pendleton South CDP,CA,33.231824,-117.391998
Camptonville CDP,CA,39.452072,-121.048668
Canby CDP,CA,41.452293,-120.888319
Cantua Creek CDP,CA,36.500045,-120.316361
Canyondam CDP,CA,40.169867,-121.076986
Canyon Lake city,CA,33.688302,-117.263547
Capitola city,CA,36.976083,-121.954012
Caribou CDP,CA,40.073244,-121.16567
Carlsbad city,CA,33.129284,-117.284183
Carmel-by-the-Sea city,CA,36.552881,-121.921919
Carmel Valley Village CDP,CA,36.500627,-121.73182
Carmet CDP,CA,38.374452,-123.071859
Carmichael CDP,CA,38.630812,-121.325636
Carnelian Bay CDP,CA,39.235165,-120.078207
Carpinteria city,CA,34.385234,-119.500759
Carrick CDP,CA,41.446746,-122.363457
Carson city,CA,33.840367,-118.249574
Cartago CDP,CA,36.305239,-118.027166
Caruthers CDP,CA,36.539907,-119.845027
Casa Conejo CDP,CA,34.184731,-118.944517
Casa de Oro-Mount Helix CDP,CA,32.763961,-116.968808
Casa Loma CDP,CA,35.34323,-118.998711
Casmalia CDP,CA,34.837799,-120.531044
Caspar CDP,CA,39.363063,-123.804194
Cassel CDP,CA,40.925021,-121.548476
Castaic CDP,CA,34.477444,-118.632681
Castella CDP,CA,41.177248,-122.287241
Castle Hill CDP,CA,37.874718,-122.058582
Castro Valley CDP,CA,37.708276,-122.062769
Castroville CDP,CA,36.76484,-121.753376
Cathedral City city,CA,33.835487,-116.463103
Catheys Valley CDP,CA,37.427706,-120.096038
Cayucos CDP,CA,35.439581,-120.889828
Cazadero CDP,CA,38.527831,-123.109799
Cedar Flat CDP,CA,39.206907,-120.094902
Cedar Ridge CDP,CA,38.065736,-120.273869
Cedar Slope CDP,CA,36.145464,-118.578881
Cedarville CDP,CA,41.528683,-120.174433
Centerville CDP,CA,36.736117,-119.496006
Centerville CDP,CA,40.542902,-122.464505
Ceres city,CA,37.598786,-120.968081
Cerritos city,CA,33.867745,-118.069471
Chalfant CDP,CA,37.492115,-118.390408
Challenge-Brownsville CDP,CA,39.464617,-121.26325
Channel Islands Beach CDP,CA,34.16896,-119.228542
Charleston View CDP,CA,35.964629,-115.897235
Charter Oak CDP,CA,34.102492,-117.856282
Cherokee CDP,CA,39.650877,-121.533646
Cherokee Strip CDP,CA,35.469567,-119.261525
Cherryland CDP,CA,37.679216,-122.103777
Cherry Valley CDP,CA,33.979642,-116.969371
Chester CDP,CA,40.301675,-121.232503
Chico city,CA,39.758951,-121.81772
Chilcoot-Vinton CDP,CA,39.806744,-120.138861
China Lake Acres CDP,CA,35.640019,-117.766458
Chinese Camp CDP,CA,37.870215,-120.444225
Chino city,CA,33.975627,-117.667351
Chino Hills city,CA,33.942969,-117.725648
Choctaw Valley CDP,CA,35.448555,-118.887191
Chowchilla city,CA,37.116104,-120.241978
Chualar CDP,CA,36.571113,-121.510295
Chula Vista city,CA,32.62767,-117.01517
Citrus CDP,CA,34.113438,-117.891301
Citrus Heights city,CA,38.69481,-121.287953
Claremont city,CA,34.124926,-117.71392
Clarksburg CDP,CA,38.419335,-121.541617
Clay CDP,CA,38.314038,-121.159591
Clayton city,CA,37.940322,-121.930075
Clear Creek CDP,CA,40.307086,-121.0554
Clearlake city,CA,38.960045,-122.633232
Clearlake Oaks CDP,CA,39.020605,-122.656939
Clearlake Riviera CDP,CA,38.951383,-122.722243
Cleone CDP,CA,39.490153,-123.775692
Clio CDP,CA,39.754217,-120.566728
Clipper Mills CDP,CA,39.532424,-121.166552
Cloverdale city,CA,38.794795,-123.014703
Clovis city,CA,36.827809,-119.681843
Clyde CDP,CA,38.02539,-122.028016
Coachella city,CA,33.69038,-116.143128
Coalinga city,CA,36.133014,-120.339005
Coarsegold CDP,CA,37.239184,-119.700972
Cobb CDP,CA,38.835329,-122.722435
Coffee Creek CDP,CA,41.079673,-122.716906
Cohasset CDP,CA,39.902152,-121.745368
Cold Springs CDP,CA,38.74644,-120.873807
Cold Springs CDP,CA,38.161335,-120.053527
Coleville CDP,CA,38.580561,-119.502863
Colfax city,CA,39.093799,-120.953222
College City CDP,CA,39.006085,-122.005134
Collierville CDP,CA,38.212831,-121.264972
Colma town,CA,37.676697,-122.452821
Coloma CDP,CA,38.802616,-120.894635
Colton city,CA,34.054525,-117.325029
Columbia CDP,CA,38.031227,-120.413398
Colusa city,CA,39.200023,-122.009481
Commerce city,CA,33.994523,-118.149952
Comptche CDP,CA,39.265134,-123.589715
Compton city,CA,33.894047,-118.227469
Concord city,CA,37.972184,-122.001587
Concow CDP,CA,39.770316,-121.513493
Contra Costa Centre CDP,CA,37.925963,-122.053977
Copperopolis CDP,CA,37.939092,-120.625141
Corcoran city,CA,36.084057,-119.561268
Corning city,CA,39.9282,-122.182009
Corona city,CA,33.861969,-117.565495
Coronado city,CA,32.656721,-117.156376
Coronita CDP,CA,33.875877,-117.610983
Corralitos CDP,CA,36.98423,-121.789432
Corte Madera town,CA,37.931846,-122.507738
Costa Mesa city,CA,33.665905,-117.912336
Cotati city,CA,38.328492,-122.710049
Coto de Caza CDP,CA,33.597037,-117.586484
Cottonwood CDP,CA,35.345588,-118.985856
Cottonwood CDP,CA,40.390291,-122.315631
Coulterville CDP,CA,37.712573,-120.196062
Country Club CDP,CA,37.968036,-121.340482
Courtland CDP,CA,38.332911,-121.557026
Covelo CDP,CA,39.800187,-123.252601
Covina city,CA,34.090475,-117.882143
Cowan CDP,CA,37.560105,-120.988787
Crescent City city,CA,41.764514,-124.200779
Crescent Mills CDP,CA,40.100741,-120.921706
Cressey CDP,CA,37.42103,-120.65569
Crest CDP,CA,32.80002,-116.867078
Crestline CDP,CA,34.254077,-117.286709
Creston CDP,CA,35.517097,-120.518136
C-Road CDP,CA,39.762728,-120.577051
Crockett CDP,CA,38.051919,-122.220127
Cromberg CDP,CA,39.868383,-120.690446
Crowley Lake CDP,CA,37.568742,-118.746421
Crows Landing CDP,CA,37.394443,-121.075166
Cudahy city,CA,33.964003,-118.182561
Culver City city,CA,34.00582,-118.396781
Cupertino city,CA,37.3194,-122.044957
Cutler CDP,CA,36.524664,-119.288829
Cutten CDP,CA,40.765684,-124.144461
Cuyama CDP,CA,34.931057,-119.61488
Cypress city,CA,33.818477,-118.038307
Dales CDP,CA,40.317989,-122.053844
Daly City city,CA,37.701684,-122.464968
Dana Point city,CA,33.475452,-117.693087
Danville town,CA,37.812142,-121.969824
Daphnedale Park CDP,CA,41.506864,-120.548069
Darwin CDP,CA,36.268803,-117.589004
Davenport CDP,CA,37.017779,-122.187885
Davis city,CA,38.556147,-121.737793
Day Valley CDP,CA,37.025439,-121.855931
Deer Park CDP,CA,38.535176,-122.470152
Del Aire CDP,CA,33.916738,-118.36929
Delano city,CA,35.76643,-119.264221
Del Dios CDP,CA,33.075682,-117.119036
Delft Colony CDP,CA,36.513809,-119.446522
Delhi CDP,CA,37.430599,-120.775899
Delleker CDP,CA,39.813251,-120.489671
Del Mar city,CA,32.963945,-117.259804
Del Monte Forest CDP,CA,36.583834,-121.946714
Del Rey CDP,CA,36.656464,-119.598135
Del Rey Oaks city,CA,36.589699,-121.829527
Del Rio CDP,CA,37.745907,-121.009293
Denair CDP,CA,37.525398,-120.797433
Derby Acres CDP,CA,35.244025,-119.603833
Descanso CDP,CA,32.869565,-116.627878
Desert Center CDP,CA,33.737799,-115.366622
Desert Edge CDP,CA,33.922289,-116.440092
Desert Hot Springs city,CA,33.957591,-116.542284
Desert Palms CDP,CA,33.779144,-116.298219
Desert Shores CDP,CA,33.403803,-116.039206
Desert View Highlands CDP,CA,34.590263,-118.153537
Diablo CDP,CA,37.840774,-121.956477
Diablo Grande CDP,CA,37.399047,-121.263511
Diamond Bar city,CA,34.001573,-117.817601
Diamond Springs CDP,CA,38.692014,-120.838684
Di Giorgio CDP,CA,35.249118,-118.844154
Dillon Beach CDP,CA,38.243488,-122.955955
Dinuba city,CA,36.545096,-119.398882
Discovery Bay CDP,CA,37.908131,-121.597196
Dixon city,CA,38.447512,-121.824223
Dixon Lane-MeadowCreek CDP,CA,37.386388,-118.415273
Dobbins CDP,CA,39.35659,-121.210378
Dogtown CDP,CA,38.208667,-121.154809
Dollar Point CDP,CA,39.189626,-120.109426
Dorrington CDP,CA,38.304479,-120.266321
Dorris city,CA,41.964965,-121.920387
Dos Palos city,CA,36.985424,-120.633845
Dos Palos Y CDP,CA,37.04684,-120.639473
Douglas City CDP,CA,40.644953,-122.927426
Douglas Flat CDP,CA,38.114619,-120.452862
Downey city,CA,33.938237,-118.130856
Downieville CDP,CA,39.578643,-120.816405
Doyle CDP,CA,40.027223,-120.11537
Drytown CDP,CA,38.441489,-120.860504
Duarte city,CA,34.160967,-117.950447
Dublin city,CA,37.716137,-121.896229
Ducor CDP,CA,35.892701,-119.04701
Dunnigan CDP,CA,38.892643,-121.974184
Dunsmuir city,CA,41.231526,-122.270939
Durham CDP,CA,39.629358,-121.79077
Dustin Acres CDP,CA,35.215929,-119.374987
Dutch Flat CDP,CA,39.208008,-120.834476
Eagleville CDP,CA,41.318993,-120.114607
Earlimart CDP,CA,35.891354,-119.272092
East Bakersfield CDP,CA,35.383185,-118.974368
Eastern Goleta Valley CDP,CA,34.443913,-119.785477
East Foothills CDP,CA,37.382607,-121.813749
East Hemet CDP,CA,33.730114,-116.941001
East Los Angeles CDP,CA,34.031506,-118.168567
East Nicolaus CDP,CA,38.910044,-121.544319
East Niles CDP,CA,35.368273,-118.922462
East Oakdale CDP,CA,37.783867,-120.798631
Easton CDP,CA,36.652391,-119.790786
East Orosi CDP,CA,36.548069,-119.259853
East Palo Alto city,CA,37.46778,-122.13255
East Pasadena CDP,CA,34.136798,-118.077535
East Porterville CDP,CA,36.058162,-118.974903
East Quincy CDP,CA,39.91643,-120.91894
East Rancho Dominguez CDP,CA,33.894841,-118.195586
East Richmond Heights CDP,CA,37.945084,-122.31391
East San Gabriel CDP,CA,34.116189,-118.079886
East Shore CDP,CA,40.245269,-121.076778
East Sonora CDP,CA,37.974241,-120.338035
East Tulare Villa CDP,CA,36.203763,-119.280335
Eastvale city,CA,33.963274,-117.582369
East Whittier CDP,CA,33.924376,-117.988732
Edgewood CDP,CA,41.460773,-122.425687
Edison CDP,CA,35.347313,-118.869826
Edmundson Acres CDP,CA,35.227296,-118.823252
Edna CDP,CA,35.210786,-120.605968
Edwards AFB CDP,CA,34.902408,-117.921869
El Adobe CDP,CA,35.245083,-118.958842
El Cajon city,CA,32.801673,-116.960468
El Centro city,CA,32.786351,-115.560206
El Centro Naval Air Facility CDP,CA,32.825232,-115.668072
El Cerrito city,CA,37.919574,-122.302519
El Cerrito CDP,CA,33.838186,-117.522205
El Dorado Hills CDP,CA,38.676082,-121.0477
Eldridge CDP,CA,38.333887,-122.506518
Elfin Forest CDP,CA,33.081232,-117.177443
El Granada CDP,CA,37.514166,-122.464803
Elizabeth Lake CDP,CA,34.656488,-118.379847
Elk Creek CDP,CA,39.598678,-122.53232
Elk Grove city,CA,38.414621,-121.384961
Elkhorn CDP,CA,36.810673,-121.718699
El Macero CDP,CA,38.544019,-121.685168
Elmira CDP,CA,38.352329,-121.907719
El Modena CDP,CA,33.791957,-117.804651
El Monte city,CA,34.074633,-118.029136
El Monte Mobile Village CDP,CA,36.547075,-119.425049
El Nido CDP,CA,37.132376,-120.498551
El Paso de Robles (Paso Robles) city,CA,35.628513,-120.650356
El Portal CDP,CA,37.673241,-119.787716
El Rancho CDP,CA,36.220684,-119.068357
El Rio CDP,CA,34.245364,-119.156763
El Segundo city,CA,33.910367,-118.425079
El Sobrante CDP,CA,37.973624,-122.303141
El Sobrante CDP,CA,33.872465,-117.462517
El Verano CDP,CA,38.297465,-122.491544
Elverta CDP,CA,38.718464,-121.445475
Emerald Lake Hills CDP,CA,37.46566,-122.265351
Emeryville city,CA,37.838473,-122.301682
Empire CDP,CA,37.643057,-120.907038
Encinitas city,CA,33.050632,-117.263616
Escalon city,CA,37.791336,-120.999643
Escondido city,CA,33.133053,-117.074043
Esparto CDP,CA,38.69341,-122.024046
Etna city,CA,41.458199,-122.895819
Eucalyptus Hills CDP,CA,32.885177,-116.944983
Eureka city,CA,40.797594,-124.154191
Exeter city,CA,36.294137,-119.145953
Fairbanks Ranch CDP,CA,32.991596,-117.186611
Fairfax CDP,CA,35.346885,-118.933806
Fairfax town,CA,37.988532,-122.595208
Fairfield city,CA,38.261965,-122.032389
Fairhaven CDP,CA,40.788293,-124.201421
Fairmead CDP,CA,37.077405,-120.193909
Fair Oaks CDP,CA,38.650154,-121.25097
Fairview CDP,CA,37.677667,-122.044434
Fallbrook CDP,CA,33.374235,-117.220375
Fall River Mills CDP,CA,41.007241,-121.441134
Farmersville city,CA,36.304739,-119.208605
Farmington CDP,CA,37.929868,-121.004367
Fellows CDP,CA,35.177929,-119.547211
Felton CDP,CA,37.039222,-122.080764
Ferndale city,CA,40.578144,-124.261247
Fetters Hot Springs-Agua Caliente CDP,CA,38.327504,-122.487137
Fiddletown CDP,CA,38.506864,-120.760149
Fieldbrook CDP,CA,40.972958,-124.028586
Fields Landing CDP,CA,40.724236,-124.218603
Fillmore city,CA,34.398958,-118.91746
Firebaugh city,CA,36.853745,-120.453746
Fish Camp CDP,CA,37.4799,-119.640911
Florence-Graham CDP,CA,33.968159,-118.244667
Florin CDP,CA,38.48315,-121.404326
Floriston CDP,CA,39.39293,-120.015113
Flournoy CDP,CA,39.928339,-122.445793
Folsom city,CA,38.666597,-121.141635
Fontana city,CA,34.109686,-117.462888
Foothill Farms CDP,CA,38.686732,-121.347478
Forbestown CDP,CA,39.527584,-121.266222
Ford City CDP,CA,35.164735,-119.4584
Foresta CDP,CA,37.698779,-119.748274
Foresthill CDP,CA,39.005286,-120.831355
Forest Meadows CDP,CA,38.171801,-120.397737
Forest Ranch CDP,CA,39.895204,-121.670451
Forestville CDP,CA,38.482491,-122.889884
Fort Bidwell CDP,CA,41.863301,-120.159395
Fort Bragg city,CA,39.439803,-123.801757
Fort Dick CDP,CA,41.869526,-124.167206
Fort Hunter Liggett CDP,CA,35.992329,-121.23487
Fort Irwin CDP,CA,35.247701,-116.683411
Fort Jones city,CA,41.608452,-122.841066
Fortuna city,CA,40.587084,-124.142161
Fort Washington CDP,CA,36.87934,-119.76122
Foster City city,CA,37.56482,-122.250782
Fountain Valley city,CA,33.710582,-117.951129
Fowler city,CA,36.62446,-119.674682
Franklin CDP,CA,37.327529,-120.532089
Franklin CDP,CA,38.367521,-121.461629
Frazier Park CDP,CA,34.814193,-118.954961
Freedom CDP,CA,36.940254,-121.795246
Freeport CDP,CA,38.462935,-121.502107
Fremont city,CA,37.49446,-121.94115
French Camp CDP,CA,37.866024,-121.274154
French Gulch CDP,CA,40.718793,-122.629357
French Valley CDP,CA,33.599461,-117.106495
Fresno city,CA,36.782684,-119.793359
Friant CDP,CA,36.984012,-119.70806
Fruitdale CDP,CA,37.311711,-121.935765
Fruitridge Pocket CDP,CA,38.532613,-121.455807
Fuller Acres CDP,CA,35.302254,-118.914295
Fullerton city,CA,33.885716,-117.928025
Fulton CDP,CA,38.493709,-122.773417
Furnace Creek CDP,CA,36.427669,-116.87469
Galt city,CA,38.268458,-121.298952
Garberville CDP,CA,40.100306,-123.794315
Gardena city,CA,33.894417,-118.307522
Garden Acres CDP,CA,37.963697,-121.22961
Garden Farms CDP,CA,35.415782,-120.614034
Garden Grove city,CA,33.778782,-117.960472
Garey CDP,CA,34.885821,-120.31375
Garnet CDP,CA,33.917892,-116.479609
Gasquet CDP,CA,41.836075,-123.976031
Gazelle CDP,CA,41.51187,-122.521946
Georgetown CDP,CA,38.911353,-120.834624
Gerber CDP,CA,40.061417,-122.148201
Geyserville CDP,CA,38.717314,-122.903423
Gilroy city,CA,37.006407,-121.585321
Glencoe CDP,CA,38.353042,-120.57329
Glendale city,CA,34.181393,-118.24583
Glendora city,CA,34.144964,-117.847804
Glen Ellen CDP,CA,38.355323,-122.543306
Glennville CDP,CA,35.724194,-118.715217
Golden Hills CDP,CA,35.136422,-118.497592
Gold Mountain CDP,CA,39.761315,-120.519054
Gold River CDP,CA,38.626854,-121.249164
Goleta city,CA,34.435441,-119.858946
Gonzales city,CA,36.50524,-121.442016
Good Hope CDP,CA,33.770627,-117.277199
Goodmanville CDP,CA,35.428994,-118.943719
Goodyears Bar CDP,CA,39.552354,-120.893102
Goshen CDP,CA,36.349266,-119.420621
Graeagle CDP,CA,39.752477,-120.645449
Grand Terrace city,CA,34.03116,-117.313192
Grangeville CDP,CA,36.343898,-119.707467
Granite Bay CDP,CA,38.760441,-121.168196
Granite Hills CDP,CA,32.80328,-116.90561
Graniteville CDP,CA,39.444366,-120.73603
Grass Valley city,CA,39.220305,-121.052654
Graton CDP,CA,38.437517,-122.865988
Grayson CDP,CA,37.564577,-121.18005
Greeley Hill CDP,CA,37.757043,-120.130759
Greenacres CDP,CA,35.383159,-119.118381
Green Acres CDP,CA,33.734972,-117.078244
Greenfield CDP,CA,35.269489,-119.009491
Greenfield city,CA,36.323977,-121.243699
Greenhorn CDP,CA,39.902968,-120.758983
Green Valley CDP,CA,34.617415,-118.405023
Green Valley CDP,CA,38.263843,-122.162498
Greenview CDP,CA,41.544922,-122.920964
Greenville CDP,CA,40.133603,-120.945333
Grenada CDP,CA,41.6401,-122.526627
Gridley city,CA,39.362883,-121.697543
Grimes CDP,CA,39.074154,-121.898775
Grizzly Flats CDP,CA,38.635696,-120.535435
Groveland CDP,CA,37.831966,-120.241581
Grover Beach city,CA,35.120888,-120.619664
Guadalupe city,CA,34.964929,-120.573127
Guerneville CDP,CA,38.517165,-122.989897
Guinda CDP,CA,38.827374,-122.198359
Gustine city,CA,37.252549,-120.995513
Hacienda Heights CDP,CA,33.995853,-117.973023
Half Moon Bay city,CA,37.467319,-122.440485
Hamilton Branch CDP,CA,40.27725,-121.096092
Hamilton City CDP,CA,39.742678,-122.010946
Hanford city,CA,36.328141,-119.654773
Happy Camp CDP,CA,41.815893,-123.392796
Happy Valley CDP,CA,40.466141,-122.417969
Harbison Canyon CDP,CA,32.827274,-116.83807
Hardwick CDP,CA,36.402596,-119.72077
Harmony Grove CDP,CA,33.100717,-117.137992
Hartland CDP,CA,36.653867,-118.958812
Hartley CDP,CA,38.420393,-121.950842
Hasley Canyon CDP,CA,34.481599,-118.666689
Hat Creek CDP,CA,40.789806,-121.474515
Hathaway Pines CDP,CA,38.190063,-120.361495
Hawaiian Gardens city,CA,33.830482,-118.073451
Hawthorne city,CA,33.914775,-118.348083
Hayfork CDP,CA,40.575871,-123.123629
Hayward city,CA,37.626826,-122.104015
Healdsburg city,CA,38.622526,-122.865133
Heber CDP,CA,32.732494,-115.529398
Hemet city,CA,33.734068,-116.996808
Herald CDP,CA,38.288403,-121.231066
Hercules city,CA,38.021427,-122.288929
Herlong CDP,CA,40.141722,-120.139657
Hermosa Beach city,CA,33.869819,-118.405296
Hesperia city,CA,34.397038,-117.315198
Hickman CDP,CA,37.619316,-120.751219
Hidden Hills city,CA,34.163744,-118.66121
Hidden Meadows CDP,CA,33.223634,-117.119826
Hidden Valley Lake CDP,CA,38.801498,-122.551422
Highgrove CDP,CA,34.010577,-117.309817
Highland city,CA,34.113473,-117.165729
Highlands CDP,CA,37.520022,-122.3459
Hillcrest CDP,CA,35.37897,-118.957853
Hillsborough town,CA,37.557206,-122.358541
Hilmar-Irwin CDP,CA,37.404543,-120.850426
Hiouchi CDP,CA,41.793664,-124.066113
Hollister city,CA,36.855618,-121.399544
Holtville city,CA,32.813781,-115.378319
Home Garden CDP,CA,36.302832,-119.637073
Home Gardens CDP,CA,33.878328,-117.511535
Homeland CDP,CA,33.745881,-117.113241
Homestead Valley CDP,CA,34.273004,-116.414549
Homewood Canyon CDP,CA,35.89004,-117.386414
Honcut CDP,CA,39.332591,-121.538759
Hood CDP,CA,38.369291,-121.515488
Hoopa CDP,CA,41.079639,-123.69766
Hopland CDP,CA,38.96883,-123.116899
Hornbrook CDP,CA,41.904505,-122.558319
Hornitos CDP,CA,37.502525,-120.238859
Hughson city,CA,37.602135,-120.866004
Humboldt Hill CDP,CA,40.722316,-124.197381
Huntington Beach city,CA,33.698007,-118.003834
Huntington Park city,CA,33.979248,-118.217438
Huron city,CA,36.204381,-120.095119
Hyampom CDP,CA,40.626179,-123.46883
Hydesville CDP,CA,40.557875,-124.08225
Hypericum CDP,CA,36.256167,-119.216933
Idlewild CDP,CA,35.809588,-118.670463
Idyllwild-Pine Cove CDP,CA,33.744209,-116.73069
Igo CDP,CA,40.49774,-122.549621
Imperial city,CA,32.838801,-115.572012
Imperial Beach city,CA,32.565354,-117.114567
Independence CDP,CA,36.83031,-118.207855
Indian Falls CDP,CA,40.05875,-120.980314
Indianola CDP,CA,40.809964,-124.078447
Indian Wells city,CA,33.699892,-116.32955
Indio city,CA,33.731639,-116.235971
Indio Hills CDP,CA,33.84106,-116.248473
Industry city,CA,34.026232,-117.940327
Inglewood city,CA,33.956068,-118.344274
Interlaken CDP,CA,36.950603,-121.737519
Inverness CDP,CA,38.082796,-122.854943
Inyokern CDP,CA,35.654387,-117.819476
Ione city,CA,38.362862,-120.947685
Iron Horse CDP,CA,39.780481,-120.482291
Irvine city,CA,33.678399,-117.771254
Irwindale city,CA,34.111855,-117.963614
Isla Vista CDP,CA,34.412179,-119.860657
Isleton city,CA,38.161252,-121.604958
Ivanhoe CDP,CA,36.383439,-119.220088
Jackson city,CA,38.348489,-120.772822
Jacumba CDP,CA,32.636478,-116.190706
Jamestown CDP,CA,37.958212,-120.407062
Jamul CDP,CA,32.71841,-116.870862
Janesville CDP,CA,40.301105,-120.490318
Jenner CDP,CA,38.459034,-123.127467
Johannesburg CDP,CA,35.371876,-117.641803
Johnson Park CDP,CA,40.921179,-121.629531
Johnstonville CDP,CA,40.380198,-120.586134
Johnsville CDP,CA,39.76971,-120.699783
Jones Valley CDP,CA,40.701315,-122.242004
Joshua Tree CDP,CA,34.123633,-116.312862
Jovista CDP,CA,35.794014,-119.18957
Julian CDP,CA,33.073502,-116.588883
Junction City CDP,CA,40.736022,-123.084644
June Lake CDP,CA,37.761783,-119.114729
Jurupa Valley city,CA,34.002591,-117.467612
Keddie CDP,CA,40.005944,-120.952416
Keeler CDP,CA,36.486718,-117.87333
Keene CDP,CA,35.23178,-118.613067
Kelly Ridge CDP,CA,39.528803,-121.466259
Kelseyville CDP,CA,38.970184,-122.831384
Kennedy CDP,CA,37.929042,-121.245783
Kennedy Meadows CDP,CA,36.007639,-118.109947
Kensington CDP,CA,37.905144,-122.284226
Kentfield CDP,CA,37.935873,-122.558999
Kenwood CDP,CA,38.415408,-122.538753
Kep'el CDP,CA,41.284142,-123.819006
Kerman city,CA,36.724911,-120.06258
Kernville CDP,CA,35.755017,-118.430907
Keswick CDP,CA,40.613763,-122.468732
Kettleman City CDP,CA,36.008985,-119.962852
Keyes CDP,CA,37.557308,-120.911375
King City city,CA,36.216283,-121.131962
Kings Beach CDP,CA,39.247528,-120.019903
Kingsburg city,CA,36.525193,-119.566403
Kingvale CDP,CA,39.320997,-120.438309
Kirkwood CDP,CA,38.689265,-120.054979
Klamath CDP,CA,41.572859,-124.055606
Knightsen CDP,CA,37.962426,-121.64858
Knights Ferry CDP,CA,37.821152,-120.669089
Knights Landing CDP,CA,38.797972,-121.717447
La Cañada Flintridge city,CA,34.20969,-118.200139
La Crescenta-Montrose CDP,CA,34.233016,-118.235774
La Cresta CDP,CA,35.397209,-118.989303
Ladera CDP,CA,37.399875,-122.198971
Ladera Heights CDP,CA,33.996776,-118.370028
Ladera Ranch CDP,CA,33.549146,-117.641741
Lafayette city,CA,37.891004,-122.119529
La Grange CDP,CA,37.663456,-120.463147
Laguna Beach city,CA,33.54337,-117.761801
Laguna Hills city,CA,33.591216,-117.697621
Laguna Niguel city,CA,33.528654,-117.701253
Laguna Woods city,CA,33.612058,-117.730319
Lagunitas-Forest Knolls CDP,CA,38.018026,-122.691303
La Habra city,CA,33.927927,-117.951554
La Habra Heights city,CA,33.958959,-117.948973
La Honda CDP,CA,37.317705,-122.25843
Lake Almanor Country Club CDP,CA,40.257771,-121.146958
Lake Almanor Peninsula CDP,CA,40.28121,-121.134454
Lake Almanor West CDP,CA,40.233573,-121.202075
Lake Arrowhead CDP,CA,34.254027,-117.178091
Lake California CDP,CA,40.358355,-122.208843
Lake City CDP,CA,41.645317,-120.222097
Lake Davis CDP,CA,39.852428,-120.45841
Lake Don Pedro CDP,CA,37.64142,-120.36436
Lake Elsinore city,CA,33.685956,-117.335404
Lake Forest city,CA,33.654946,-117.675848
Lakehead CDP,CA,40.903436,-122.399658
Lake Hughes CDP,CA,34.682415,-118.451938
Lake Isabella CDP,CA,35.637098,-118.48261
Lakeland Village CDP,CA,33.648956,-117.366823
Lake Los Angeles CDP,CA,34.609839,-117.830337
Lake Mathews CDP,CA,33.824966,-117.368343
Lake Nacimiento CDP,CA,35.730962,-120.869517
Lake of the Pines CDP,CA,39.038746,-121.061341
Lake of the Woods CDP,CA,34.827138,-118.997304
Lakeport city,CA,39.038333,-122.922633
Lake Riverside CDP,CA,33.518735,-116.812103
Lake San Marcos CDP,CA,33.122362,-117.208576
Lake Shastina CDP,CA,41.523127,-122.376366
Lake Sherwood CDP,CA,34.131803,-118.884714
Lakeside CDP,CA,35.234667,-119.082858
Lakeside CDP,CA,32.856617,-116.904237
Lakeview CDP,CA,33.828465,-117.123334
Lake Wildwood CDP,CA,39.23324,-121.19773
Lakewood city,CA,33.847135,-118.121894
La Mesa city,CA,32.769495,-117.021923
La Mirada city,CA,33.902045,-118.008961
Lamont CDP,CA,35.265142,-118.916042
Lanare CDP,CA,36.437723,-119.932199
Lancaster city,CA,34.693558,-118.175305
La Palma city,CA,33.850616,-118.039565
La Porte CDP,CA,39.672508,-120.985244
La Presa CDP,CA,32.712315,-117.00371
La Puente city,CA,34.032333,-117.95352
La Quinta city,CA,33.641767,-116.273943
La Riviera CDP,CA,38.568538,-121.354962
Larkfield-Wikiup CDP,CA,38.512972,-122.753601
Larkspur city,CA,37.940544,-122.530229
La Selva Beach CDP,CA,36.927375,-121.844404
Las Flores CDP,CA,33.583798,-117.623747
Las Flores CDP,CA,40.072141,-122.157312
Las Lomas CDP,CA,36.868813,-121.731611
Lathrop city,CA,37.808666,-121.317765
Laton CDP,CA,36.43141,-119.697597
La Verne city,CA,34.120521,-117.769928
La Vina CDP,CA,36.879865,-120.114802
Lawndale city,CA,33.888435,-118.353143
Laytonville CDP,CA,39.662256,-123.495015
Lebec CDP,CA,34.844614,-118.899237
Lee Vining CDP,CA,37.954899,-119.122014
Leggett CDP,CA,39.863539,-123.725176
Le Grand CDP,CA,37.228815,-120.254002
Lemon Cove CDP,CA,36.38088,-119.02846
Lemon Grove city,CA,32.733071,-117.034413
Lemon Hill CDP,CA,38.517232,-121.457279
Lemoore city,CA,36.29528,-119.797268
Lemoore Station CDP,CA,36.263278,-119.904836
Lennox CDP,CA,33.938068,-118.35854
Lenwood CDP,CA,34.886037,-117.107784
Leona Valley CDP,CA,34.608146,-118.30132
Lewiston CDP,CA,40.696931,-122.822509
Lexington Hills CDP,CA,37.159016,-121.988793
Likely CDP,CA,41.226827,-120.501236
Lincoln city,CA,38.874464,-121.292886
Lincoln Village CDP,CA,38.005471,-121.333843
Linda CDP,CA,39.124142,-121.542173
Lindcove CDP,CA,36.358027,-119.064584
Linden CDP,CA,38.01814,-121.101562
Lindsay city,CA,36.209096,-119.093259
Linnell Camp CDP,CA,36.308887,-119.222583
Litchfield CDP,CA,40.387702,-120.380705
Little Grass Valley CDP,CA,39.725246,-120.959073
Little River CDP,CA,39.270285,-123.781749
Littlerock CDP,CA,34.525126,-117.981631
Little Valley CDP,CA,40.893049,-121.178041
Live Oak CDP,CA,36.986024,-121.980414
Live Oak city,CA,39.278802,-121.662439
Livermore city,CA,37.686977,-121.759781
Livingston city,CA,37.387281,-120.724943
Lockeford CDP,CA,38.149128,-121.154309
Lockwood CDP,CA,38.486691,-120.603425
Lockwood CDP,CA,35.940083,-121.078282
Lodi city,CA,38.12161,-121.290765
Lodoga CDP,CA,39.304272,-122.505944
Loleta CDP,CA,40.640885,-124.222556
Loma Linda city,CA,34.043287,-117.246647
Loma Mar CDP,CA,37.265784,-122.300692
Loma Rica CDP,CA,39.320318,-121.403831
Lomita city,CA,33.793306,-118.317455
Lompico CDP,CA,37.114619,-122.052768
Lompoc city,CA,34.662689,-120.470837
London CDP,CA,36.48048,-119.44494
Lone Pine CDP,CA,36.574447,-118.08061
Long Barn CDP,CA,38.093263,-120.134686
Long Beach city,CA,33.780791,-118.16818
Lookout CDP,CA,41.210401,-121.15296
Loomis town,CA,38.809358,-121.195383
Los Alamitos city,CA,33.796913,-118.061234
Los Alamos CDP,CA,34.741803,-120.274596
Los Altos city,CA,37.368431,-122.09657
Los Altos Hills town,CA,37.366808,-122.13865
Los Angeles city,CA,34.019394,-118.410825
Los Banos city,CA,37.063184,-120.840304
Los Berros CDP,CA,35.080907,-120.545036
Los Gatos town,CA,37.229944,-121.956874
Los Molinos CDP,CA,40.027074,-122.097971
Los Olivos CDP,CA,34.661506,-120.117436
Los Osos CDP,CA,35.307083,-120.824522
Los Ranchos CDP,CA,35.212699,-120.62803
Lost Hills CDP,CA,35.632721,-119.677889
Lower Lake CDP,CA,38.913034,-122.606987
Loyalton city,CA,39.676855,-120.244811
Loyola CDP,CA,37.350325,-122.097973
Lucas Valley-Marinwood CDP,CA,38.040509,-122.576482
Lucerne CDP,CA,39.05677,-122.770289
Lucerne Valley CDP,CA,34.442719,-116.902093
Lynwood city,CA,33.923959,-118.201655
Lytle Creek CDP,CA,34.249926,-117.504431
Mabie CDP,CA,39.77706,-120.544699
McArthur CDP,CA,41.041995,-121.40524
McClellan Park CDP,CA,38.662896,-121.401656
McClenney Tract CDP,CA,35.821984,-118.647839
McCloud CDP,CA,41.254739,-122.136221
Macdoel CDP,CA,41.826173,-122.005885
McFarland city,CA,35.667286,-119.230722
McGee Creek CDP,CA,37.572665,-118.791
McKinleyville CDP,CA,40.951571,-124.077357
McKittrick CDP,CA,35.298028,-119.624921
McSwain CDP,CA,37.314505,-120.586758
Madeline CDP,CA,41.05141,-120.475434
Madera city,CA,36.966193,-120.085855
Madera Acres CDP,CA,37.012698,-120.079735
Madera Ranchos CDP,CA,36.92791,-119.877283
